Lat,Long,YYYYMMDD,Basin_name,Station_id,Acton_id,Station_name,Elevation,Wteq_amt,Wteq_med,Wteq_amt_pct_med,Wteq_amt_pct_med_flag,Prec_wytd_amt,Prec_wytd_avg,Prec_wytd_pctavg,Prec_wytd_pct_avg_flag, 
48.5666667,-115.4500000,20150210,"KOOTENAI RIVER IN MONTANA",311,"15A08S","Banfield Mountain","5600",8.7,12.2,71,,17.1,17.8,96,,
48.3000000,-116.0666667,20150210,"KOOTENAI RIVER IN MONTANA",323,"16A08S","Bear Mountain","5400",23.5,38.6,61,,48.9,49.5,99,,
48.9833333,-115.8166667,20150210,"KOOTENAI RIVER IN MONTANA",918,"15A05S","Garver Creek","4250",5.4,6.9,78,,13.0,12.9,101,,
48.9166667,-114.7666667,20150210,"KOOTENAI RIVER IN MONTANA",500,"14A11S","Grave Creek","4300",10.7,11.4,94,,25.9,22.8,114,,
48.3000000,-114.8333333,20150210,"KOOTENAI RIVER IN MONTANA",510,"14A14S","Hand Creek","5035",6.1,7.8,78,,12.8,11.7,109,,
48.9666667,-115.9500000,20150210,"KOOTENAI RIVER IN MONTANA",516,"15A03S","Hawkins Lake","6450",15.7,16.8,93,,24.8,20.9,119,,
48.1333333,-115.6166667,20150210,"KOOTENAI RIVER IN MONTANA",932,"15A12S","Poorman Creek","5100",15.4,23.7,65,,45.9,39.8,115,,
48.9166667,-114.8666667,20150210,"KOOTENAI RIVER IN MONTANA",787,"14A12S","Stahl Peak","6030",23.0,23.2,99,,28.0,26.6,105,,
,,,,"KOOTENAI RIVER IN MONTANA",,,Basin Index (%),"","",77,,"","",107,, 
48.2000000,-114.5166667,20150210,"FLATHEAD RIVER BASIN",1165,"14A19S","Ashley Divide","4820",-999,-998,,-997,10.8,-998,,-997,
48.1333333,-113.0166667,20150210,"FLATHEAD RIVER BASIN",307,"13A15S","Badger Pass","6900",22.9,20.3,113,,22.4,23.2,97,,
47.6833333,-114.0000000,20150210,"FLATHEAD RIVER BASIN",346,"13B25S","Bisson Creek","4920",8.3,6.8,122,,17.7,11.5,154,,
47.9833333,-114.3500000,20150210,"FLATHEAD RIVER BASIN",1144,"14B04S","Blacktail Mtn","5650",7.9,-998,,-997,10.7,-998,,-997,
48.4333333,-113.9333333,20150210,"FLATHEAD RIVER BASIN",469,"13A24S","Emery Creek","4350",11.0,10.4,106,,21.5,17.1,126,,
48.8000000,-113.8500000,20150210,"FLATHEAD RIVER BASIN",482,"13A19S","Flattop Mtn.","6300",29.3,29.7,99,,38.2,33.8,113,,
48.9166667,-114.7666667,20150210,"FLATHEAD RIVER BASIN",500,"14A11S","Grave Creek","4300",10.7,11.4,94,,25.9,22.8,114,,
48.3000000,-114.8333333,20150210,"FLATHEAD RIVER BASIN",510,"14A14S","Hand Creek","5035",6.1,7.8,78,,12.8,11.7,109,,
47.4333333,-113.7833333,20150210,"FLATHEAD RIVER BASIN",562,"13B22S","Kraft Creek","4750",8.7,-998,,-997,23.2,18.7,124,,
48.8000000,-113.6666667,20150210,"FLATHEAD RIVER BASIN",613,"13A27S","Many Glacier","4900",4.5,10.1,45,,25.3,22.3,113,,
47.6833333,-113.9666667,20150210,"FLATHEAD RIVER BASIN",646,"13B24S","Moss Peak","6780",32.9,23.6,139,,35.5,25.4,140,,
48.1500000,-113.9500000,20150210,"FLATHEAD RIVER BASIN",664,"13A25S","Noisy Basin","6040",32.9,26.8,123,,35.7,30.3,118,,
47.2666667,-113.7500000,20150210,"FLATHEAD RIVER BASIN",667,"13B07S","North Fork Jocko","6330",33.3,28.8,116,,41.5,35.5,117,,
48.3000000,-113.3333333,20150210,"FLATHEAD RIVER BASIN",693,"13A26S","Pike Creek","5930",4.4,-998,,-997,24.3,21.2,115,,
47.1833333,-114.3333333,20150210,"FLATHEAD RIVER BASIN",783,"14B05S","Sleeping Woman","6150",10.4,10.1,103,,18.5,14.7,126,,
48.9166667,-114.8666667,20150210,"FLATHEAD RIVER BASIN",787,"14A12S","Stahl Peak","6030",23.0,23.2,99,,28.0,26.6,105,,
47.0000000,-113.9333333,20150210,"FLATHEAD RIVER BASIN",901,"13C01S","Stuart Mountain","7400",26.9,21.9,123,,28.0,22.8,123,,
,,,,"FLATHEAD RIVER BASIN",,,Basin Index (%),"","",109,,"","",118,, 
46.1000000,-113.1333333,20150210,"UPPER CLARK FORK RIVER BASIN",313,"13C44S","Barker Lakes","8250",9.2,8.6,107,,12.4,10.5,118,,
45.8000000,-112.5166667,20150210,"UPPER CLARK FORK RIVER BASIN",315,"12D09S","Basin Creek","7180",5.7,4.8,119,,5.6,6.0,93,,
46.4166667,-113.4333333,20150210,"UPPER CLARK FORK RIVER BASIN",349,"13C13S","Black Pine","7210",9.3,6.7,139,,12.1,9.1,133,,
46.4666667,-113.4000000,20150210,"UPPER CLARK FORK RIVER BASIN",410,"13C33S","Combination","5600",2.9,3.4,85,,7.5,6.5,115,,
47.0500000,-112.6000000,20150210,"UPPER CLARK FORK RIVER BASIN",413,"12B16S","Copper Bottom","5200",4.2,-998,,-997,11.9,11.7,102,,
47.0833333,-112.7333333,20150210,"UPPER CLARK FORK RIVER BASIN",414,"12B14S","Copper Camp","6950",32.5,-998,,-997,20.5,23.0,89,,
46.8833333,-113.3166667,20150210,"UPPER CLARK FORK RIVER BASIN",604,"13C38S","Lubrecht Flume","4680",5.8,4.1,141,,10.2,7.4,138,,
46.8500000,-112.5000000,20150210,"UPPER CLARK FORK RIVER BASIN",903,"12C22S","Nevada Ridge","7020",12.2,9.4,130,,13.4,11.5,117,,
46.8666667,-113.2833333,20150210,"UPPER CLARK FORK RIVER BASIN",657,"13C31S","N Fk Elk Creek","6250",9.1,7.3,125,,11.0,9.6,115,,
47.2666667,-113.7500000,20150210,"UPPER CLARK FORK RIVER BASIN",667,"13B07S","North Fork Jocko","6330",33.3,28.8,116,,41.5,35.5,117,,
46.1333333,-113.3000000,20150210,"UPPER CLARK FORK RIVER BASIN",930,"13C36S","Peterson Meadows","7200",8.3,5.8,143,,10.8,7.5,144,,
46.3500000,-112.2666667,20150210,"UPPER CLARK FORK RIVER BASIN",722,"12C11S","Rocker Peak","8000",10.4,8.7,120,,10.4,9.1,114,,
46.2500000,-113.7666667,20150210,"UPPER CLARK FORK RIVER BASIN",760,"13C03S","Skalkaho Summit","7250",17.2,14.7,117,,18.3,15.8,116,,
47.0000000,-113.9333333,20150210,"UPPER CLARK FORK RIVER BASIN",901,"13C01S","Stuart Mountain","7400",26.9,21.9,123,,28.0,22.8,123,,
46.2666667,-113.1666667,20150210,"UPPER CLARK FORK RIVER BASIN",850,"13C43S","Warm Springs","7800",18.1,13.1,138,,19.7,15.2,130,,
,,,,"UPPER CLARK FORK RIVER BASIN",,,Basin Index (%),"","",123,,"","",116,, 
46.1833333,-113.8500000,20150210,"BITTERROOT",433,"13C39S","Daly Creek","5780",8.1,7.0,116,,11.2,9.7,115,,
46.6333333,-114.5833333,20150210,"BITTERROOT",588,"14C05S","Lolo Pass","5240",18.8,19.3,97,,29.4,24.5,120,,
45.6666667,-113.9500000,20150210,"BITTERROOT",638,"13D16S","Moose Creek","6200",15.1,11.9,127,,18.4,14.5,127,,
45.7333333,-114.4833333,20150210,"BITTERROOT",662,"14D02S","Nez Perce Camp","5650",10.9,9.2,118,,20.0,14.4,139,,
45.7000000,-113.9666667,20150210,"BITTERROOT",727,"13D22S","Saddle Mtn.","7940",21.4,16.6,129,,17.4,16.3,107,,
46.2500000,-113.7666667,20150210,"BITTERROOT",760,"13C03S","Skalkaho Summit","7250",17.2,14.7,117,,18.3,15.8,116,,
46.1500000,-114.4500000,20150210,"BITTERROOT",835,"14C13S","Twelvemile Creek","5600",11.3,11.9,95,,30.6,22.9,134,,
46.1500000,-114.5000000,20150210,"BITTERROOT",836,"14C12S","Twin Lakes","6400",30.7,26.0,118,,39.4,31.9,124,,
,,,,"BITTERROOT",,,Basin Index (%),"","",114,,"","",123,, 
46.9833333,-115.0333333,20150210,"LOWER CLARK FORK RIVER BASIN",530,"15C10S","Hoodoo Basin","6050",23.9,27.3,88,,33.8,33.4,101,,
47.5333333,-115.7833333,20150210,"LOWER CLARK FORK RIVER BASIN",535,"15B21S","Humboldt Gulch","4250",7.4,8.9,83,,30.7,26.6,115,,
46.6333333,-114.5833333,20150210,"LOWER CLARK FORK RIVER BASIN",588,"14C05S","Lolo Pass","5240",18.8,19.3,97,,29.4,24.5,120,,
47.4500000,-115.7000000,20150210,"LOWER CLARK FORK RIVER BASIN",594,"15B02S","Lookout","5190",10.0,20.0,50,,28.4,28.9,98,,
48.1333333,-115.6166667,20150210,"LOWER CLARK FORK RIVER BASIN",932,"15A12S","Poorman Creek","5100",15.4,23.7,65,,45.9,39.8,115,,
47.1833333,-114.3333333,20150210,"LOWER CLARK FORK RIVER BASIN",783,"14B05S","Sleeping Woman","6150",10.4,10.1,103,,18.5,14.7,126,,
47.0000000,-113.9333333,20150210,"LOWER CLARK FORK RIVER BASIN",901,"13C01S","Stuart Mountain","7400",26.9,21.9,123,,28.0,22.8,123,,
47.5500000,-115.8166667,20150210,"LOWER CLARK FORK RIVER BASIN",803,"15B09S","Sunset","5540",9.9,17.3,57,,24.7,26.3,94,,
,,,,"LOWER CLARK FORK RIVER BASIN",,,Basin Index (%),"","",83,,"","",110,, 
48.3000000,-116.0666667,20150210,"IDAHO PANHANDLE REGION",323,"16A08S","Bear Mountain","5400",23.5,38.6,61,,48.9,49.5,99,,
48.6833333,-117.1833333,20150210,"IDAHO PANHANDLE REGION",376,"17A01S","Bunchgrass Mdw","5000",11.6,19.0,61,,24.3,25.2,96,,
47.5333333,-115.7833333,20150210,"IDAHO PANHANDLE REGION",535,"15B21S","Humboldt Gulch","4250",7.4,8.9,83,,30.7,26.6,115,,
47.4500000,-115.7000000,20150210,"IDAHO PANHANDLE REGION",594,"15B02S","Lookout","5190",10.0,20.0,50,,28.4,28.9,98,,
47.0833333,-115.9666667,20150210,"IDAHO PANHANDLE REGION",600,"15B14S","Lost Lake","6110",27.4,39.9,69,,38.1,41.9,91,,
47.1500000,-116.2666667,20150210,"IDAHO PANHANDLE REGION",623,"16B14S","Mica Creek","4510",10.1,17.6,57,,29.6,30.6,97,,
48.0500000,-116.2333333,20150210,"IDAHO PANHANDLE REGION",645,"16A04S","Mosquito Ridge","5260",16.6,26.0,64,,31.0,32.3,96,,
47.8833333,-117.0833333,20150210,"IDAHO PANHANDLE REGION",707,"17B04S","Quartz Peak","4700",7.7,15.6,49,,24.2,24.3,100,,
48.3666667,-116.6333333,20150210,"IDAHO PANHANDLE REGION",738,"16A10S","Schweitzer Basin","6090",23.0,32.8,70,,29.3,29.3,100,,
46.9500000,-116.3333333,20150210,"IDAHO PANHANDLE REGION",752,"16C01S","Sherwin","3200",2.3,8.3,28,,20.2,21.0,96,,
47.5500000,-115.8166667,20150210,"IDAHO PANHANDLE REGION",803,"15B09S","Sunset","5540",9.9,17.3,57,,24.7,26.3,94,,
,,,,"IDAHO PANHANDLE REGION",,,Basin Index (%),"","",61,,"","",98,, 
48.6833333,-117.1833333,20150210,"COLUMBIA ABOVE METHOW",376,"17A01S","Bunchgrass Mdw","5000",11.6,19.0,61,,24.3,25.2,96,,
48.7166667,-120.6666667,20150210,"COLUMBIA ABOVE METHOW",515,"20A05S","Harts Pass","6490",34.0,29.6,115,,30.7,-998,,-997,
48.3666667,-119.0833333,20150210,"COLUMBIA ABOVE METHOW",644,"19A13S","Moses Mtn","5010",5.7,10.6,54,,13.4,13.1,102,,
48.6500000,-119.8333333,20150210,"COLUMBIA ABOVE METHOW",728,"19A02S","Salmon Meadows","4460",6.9,6.9,100,,13.0,10.1,129,,
,,,,"COLUMBIA ABOVE METHOW",,,Basin Index (%),"","",88,,"","",105,, 
47.3500000,-120.6833333,20150210,"CHELAN, ENTIAT, WENATCHEE",352,"20B02S","Blewett Pass","4240",4.2,12.9,33,,20.3,22.1,92,,
48.2000000,-120.9166667,20150210,"CHELAN, ENTIAT, WENATCHEE",606,"20A23S","Lyman Lake","5980",37.3,43.0,87,,51.9,46.7,111,,
42.0166667,-115.0000000,20150210,"CHELAN, ENTIAT, WENATCHEE",871,"15G02S","Wilson Creek","7120",9.5,9.9,96,,14.5,11.6,125,,
48.4500000,-120.9166667,20150210,"CHELAN, ENTIAT, WENATCHEE",681,"20A12S","Park Creek Ridge","4600",22.5,33.0,68,,48.6,43.4,112,,
47.9833333,-120.5666667,20150210,"CHELAN, ENTIAT, WENATCHEE",699,"20B24S","Pope Ridge","3590",10.9,14.5,75,,25.7,22.3,115,,
47.7500000,-121.1000000,20150210,"CHELAN, ENTIAT, WENATCHEE",791,"21B01S","Stevens Pass","3950",12.7,29.6,43,,56.3,55.1,102,,
47.2333333,-120.3000000,20150210,"CHELAN, ENTIAT, WENATCHEE",832,"20B25S","Trough","5480",4.7,8.1,58,,17.2,15.2,113,,
47.2833333,-120.3666667,20150210,"CHELAN, ENTIAT, WENATCHEE",841,"20B07S","Upper Wheeler","4330",6.1,9.7,63,,19.3,15.2,127,,
,,,,"CHELAN, ENTIAT, WENATCHEE",,,Basin Index (%),"","",67,,"","",110,, 
46.8166667,-121.3333333,20150210,"YAKIMA, AHTANUM",375,"21C38S","Bumping Ridge","4610",5.0,18.7,27,,42.6,37.6,113,,
47.5333333,-121.0833333,20150210,"YAKIMA, AHTANUM",478,"21B04S","Fish Lake","3430",12.9,23.3,55,,44.5,41.0,109,,
46.5500000,-121.1666667,20150210,"YAKIMA, AHTANUM",502,"21C10S","Green Lake","5920",8.9,16.0,56,,26.5,21.5,123,,
47.2833333,-120.4833333,20150210,"YAKIMA, AHTANUM",507,"20B11S","Grouse Camp","5390",7.6,-998,,-997,17.7,19.1,93,,
46.3500000,-121.0833333,20150210,"YAKIMA, AHTANUM",599,"21C39S","Lost Horse","5120",1.9,14.7,13,,17.0,20.6,83,,
46.9000000,-121.4833333,20150210,"YAKIMA, AHTANUM",642,"21C17S","Morse Lake","5410",19.2,38.5,50,,52.7,48.9,108,,
47.3833333,-121.0666667,20150210,"YAKIMA, AHTANUM",734,"21B51S","Sasse Ridge","4340",11.3,24.1,47,,35.8,37.4,96,,
46.6333333,-121.3833333,20150210,"YAKIMA, AHTANUM",863,"21C28S","White Pass E.S.","4440",6.2,16.9,37,,32.5,27.2,119,,
,,,,"YAKIMA, AHTANUM",,,Basin Index (%),"","",43,,"","",106,, 
43.9333333,-110.4500000,20150210,"SNAKE ABOVE PALISADES",314,"10F02S","Base Camp","7060",14.1,11.5,123,,15.2,14.9,102,,
42.9666667,-110.6166667,20150210,"SNAKE ABOVE PALISADES",353,"10G02S","Blind Bull Sum","8650",20.7,15.1,137,,14.4,13.7,105,,
42.6500000,-110.8166667,20150210,"SNAKE ABOVE PALISADES",419,"10G25S","Cottonwood Creek","7670",18.2,13.8,132,,21.1,16.9,125,,
43.1333333,-110.2000000,20150210,"SNAKE ABOVE PALISADES",460,"10F17S","East Rim Divide","7930",11.3,7.0,161,,9.8,8.2,120,,
43.3500000,-110.4333333,20150210,"SNAKE ABOVE PALISADES",497,"10F29S","Granite Creek","6770",14.9,11.6,128,,15.3,14.5,106,,
44.1333333,-110.8333333,20150210,"SNAKE ABOVE PALISADES",499,"10E15S","Grassy Lake","7265",24.3,22.2,109,,24.5,25.6,96,,
43.3833333,-110.1333333,20150210,"SNAKE ABOVE PALISADES",506,"10F19S","Gros Ventre Summit","8750",10.0,8.7,115,,8.2,8.7,94,,
44.2166667,-110.6666667,20150210,"SNAKE ABOVE PALISADES",577,"10E09S","Lewis Lake Divide","7850",20.6,21.8,94,,22.7,24.8,92,,
43.1666667,-110.1333333,20150210,"SNAKE ABOVE PALISADES",597,"10F16S","Loomis Park","8240",13.0,10.2,127,,13.4,12.0,112,,
43.5166667,-110.9166667,20150210,"SNAKE ABOVE PALISADES",689,"10F23S","Phillips Bench","8200",19.6,16.9,116,,20.8,19.5,107,,
42.5000000,-110.9166667,20150210,"SNAKE ABOVE PALISADES",730,"10G08S","Salt River Summit","7640",9.8,8.5,115,,11.3,11.4,99,,
42.5333333,-110.6666667,20150210,"SNAKE ABOVE PALISADES",779,"10G20S","Spring Creek Divide","9000",21.3,15.7,136,,20.5,16.5,124,,
43.7500000,-110.0500000,20150210,"SNAKE ABOVE PALISADES",822,"10F09S","Togwotee Pass","9580",18.6,15.7,118,,20.0,16.9,118,,
44.1500000,-110.2166667,20150210,"SNAKE ABOVE PALISADES",837,"10E17S","Two Ocean Plateau","9240",21.0,18.9,111,,19.0,18.5,103,,
42.8166667,-110.8333333,20150210,"SNAKE ABOVE PALISADES",868,"10G23S","Willow Creek","8080",20.8,18.2,114,,23.6,23.0,103,,
,,,,"SNAKE ABOVE PALISADES",,,Basin Index (%),"","",120,,"","",106,, 
44.5000000,-111.1333333,20150210,"HENRYS FORK, TETON, WILLOW, BLACKFOOT, PORTNEUF",347,"11E35S","Black Bear","8170",23.2,25.6,91,,23.0,26.5,87,,
44.4333333,-112.0000000,20150210,"HENRYS FORK, TETON, WILLOW, BLACKFOOT, PORTNEUF",424,"11E37S","Crab Creek","6900",5.8,8.5,68,,6.1,11.1,55,,
44.1333333,-110.8333333,20150210,"HENRYS FORK, TETON, WILLOW, BLACKFOOT, PORTNEUF",499,"10E15S","Grassy Lake","7265",24.3,22.2,109,,24.5,25.6,96,,
44.4166667,-111.3833333,20150210,"HENRYS FORK, TETON, WILLOW, BLACKFOOT, PORTNEUF",546,"11E10S","Island Park","6290",9.9,10.5,94,,10.7,13.2,81,,
44.2166667,-110.6666667,20150210,"HENRYS FORK, TETON, WILLOW, BLACKFOOT, PORTNEUF",577,"10E09S","Lewis Lake Divide","7850",20.6,21.8,94,,22.7,24.8,92,,
44.5833333,-111.1166667,20150210,"HENRYS FORK, TETON, WILLOW, BLACKFOOT, PORTNEUF",609,"11E31S","Madison Plateau","7750",13.9,15.1,92,,13.9,18.4,76,,
43.5166667,-110.9166667,20150210,"HENRYS FORK, TETON, WILLOW, BLACKFOOT, PORTNEUF",689,"10F23S","Phillips Bench","8200",19.6,16.9,116,,20.8,19.5,107,,
43.5666667,-111.2166667,20150210,"HENRYS FORK, TETON, WILLOW, BLACKFOOT, PORTNEUF",695,"11F02S","Pine Creek Pass","6720",13.3,10.2,130,,16.5,15.3,108,,
42.5166667,-111.9500000,20150210,"HENRYS FORK, TETON, WILLOW, BLACKFOOT, PORTNEUF",741,"11G30S","Sedgwick Peak","7850",10.8,13.6,79,,11.5,14.5,79,,
43.2166667,-111.6833333,20150210,"HENRYS FORK, TETON, WILLOW, BLACKFOOT, PORTNEUF",749,"11F11S","Sheep Mtn.","6650",9.3,9.8,95,,10.1,11.6,87,,
42.5666667,-111.3000000,20150210,"HENRYS FORK, TETON, WILLOW, BLACKFOOT, PORTNEUF",761,"11G05S","Slug Creek Divide","7225",14.3,9.6,149,,15.3,14.4,106,,
42.9500000,-111.3666667,20150210,"HENRYS FORK, TETON, WILLOW, BLACKFOOT, PORTNEUF",770,"11G01S","Somsen Ranch","6800",8.8,9.4,94,,11.0,11.8,93,,
44.6166667,-111.1500000,20150210,"HENRYS FORK, TETON, WILLOW, BLACKFOOT, PORTNEUF",858,"11E30S","Whiskey Creek","6800",9.2,10.0,92,,10.8,14.1,77,,
44.5333333,-111.4166667,20150210,"HENRYS FORK, TETON, WILLOW, BLACKFOOT, PORTNEUF",860,"11E36S","White Elephant","7710",14.7,17.4,84,,15.4,20.3,76,,
42.7500000,-112.4833333,20150210,"HENRYS FORK, TETON, WILLOW, BLACKFOOT, PORTNEUF",867,"12G17S","Wildhorse Divide","6490",10.1,9.8,103,,11.4,13.4,85,,
,,,,"HENRYS FORK, TETON, WILLOW, BLACKFOOT, PORTNEUF",,,Basin Index (%),"","",99,,"","",88,, 
43.2666667,-115.3500000,20150210,"BIG AND LITTLE WOOD BASINS",382,"15F09S","Camas Creek Divide","5710",5.2,9.7,54,,14.4,12.9,112,,
43.7666667,-114.4166667,20150210,"BIG AND LITTLE WOOD BASINS",895,"14F19S","Chocolate Gulch","6310",8.0,9.0,89,,10.2,11.7,87,,
43.6000000,-114.6666667,20150210,"BIG AND LITTLE WOOD BASINS",450,"14F08S","Dollarhide Summit","8420",20.1,-998,,-997,16.3,18.1,90,,
43.8833333,-114.6666667,20150210,"BIG AND LITTLE WOOD BASINS",489,"14F17S","Galena","7470",13.3,11.7,114,,14.7,13.3,111,,
43.8666667,-114.7166667,20150210,"BIG AND LITTLE WOOD BASINS",490,"14F12S","Galena Summit","8780",16.4,12.6,130,,16.8,14.0,120,,
43.6166667,-113.9333333,20150210,"BIG AND LITTLE WOOD BASINS",492,"13F04S","Garfield R.S.","6560",6.0,7.1,85,,7.9,9.0,88,,
43.7166667,-114.1666667,20150210,"BIG AND LITTLE WOOD BASINS",537,"14F16S","Hyndman","7620",9.5,8.3,114,,10.6,11.1,95,,
43.8166667,-114.2666667,20150210,"BIG AND LITTLE WOOD BASINS",601,"14F03S","Lost-Wood Divide","7900",13.4,13.4,100,,12.6,14.7,86,,
43.6333333,-113.9666667,20150210,"BIG AND LITTLE WOOD BASINS",805,"13F09S","Swede Peak","7640",9.2,10.1,91,,10.0,11.7,85,,
43.8000000,-114.8500000,20150210,"BIG AND LITTLE WOOD BASINS",845,"14F04S","Vienna Mine","8960",24.3,20.7,117,,25.0,21.2,118,,
,,,,"BIG AND LITTLE WOOD BASINS",,,Basin Index (%),"","",103,,"","",101,, 
43.7500000,-113.9333333,20150210,"BIG AND LITTLE LOST BASINS",320,"13F03S","Bear Canyon","7900",9.4,9.2,102,,11.5,11.2,103,,
44.0166667,-113.4666667,20150210,"BIG AND LITTLE LOST BASINS",524,"13E27S","Hilts Creek","8000",8.5,8.4,101,,7.9,9.0,88,,
43.8166667,-114.2666667,20150210,"BIG AND LITTLE LOST BASINS",601,"14F03S","Lost-Wood Divide","7900",13.4,13.4,100,,12.6,14.7,86,,
44.4333333,-113.3166667,20150210,"BIG AND LITTLE LOST BASINS",620,"13E18S","Meadow Lake","9150",10.5,10.0,105,,11.2,11.6,97,,
44.4166667,-113.4000000,20150210,"BIG AND LITTLE LOST BASINS",636,"13E06S","Moonshine","7440",8.8,6.4,138,,10.4,8.8,118,,
43.8666667,-114.2166667,20150210,"BIG AND LITTLE LOST BASINS",792,"14F02S","Stickney Mill","7430",6.6,5.4,122,,8.0,7.2,111,,
,,,,"BIG AND LITTLE LOST BASINS",,,Basin Index (%),"","",108,,"","",99,, 
41.8333333,-115.4500000,20150210,"RAFT, GOOSE, SALMON FALLS, BRUNEAU",321,"15H01S","Bear Creek","8040",11.6,13.1,89,,13.7,15.0,91,,
41.7666667,-115.7000000,20150210,"RAFT, GOOSE, SALMON FALLS, BRUNEAU",336,"15H04S","Big Bend","6898",3.6,6.8,53,,7.0,7.6,92,,
42.1666667,-114.2000000,20150210,"RAFT, GOOSE, SALMON FALLS, BRUNEAU",359,"14G01S","Bostetter R.S.","7500",12.3,10.8,114,,14.6,12.2,120,,
42.3166667,-113.6166667,20150210,"RAFT, GOOSE, SALMON FALLS, BRUNEAU",534,"13G01S","Howell Canyon","7980",24.3,15.4,158,,22.4,18.5,121,,
42.1833333,-114.2833333,20150210,"RAFT, GOOSE, SALMON FALLS, BRUNEAU",610,"14G02S","Magic Mountain","6880",16.0,13.5,119,,16.6,15.6,106,,
41.8666667,-115.2500000,20150210,"RAFT, GOOSE, SALMON FALLS, BRUNEAU",698,"15H14S","Pole Creek R.S.","8360",11.8,13.2,89,,6.8,8.0,85,,
41.7333333,-115.4666667,20150210,"RAFT, GOOSE, SALMON FALLS, BRUNEAU",746,"15H03S","Seventysix Creek","7350",7.0,8.0,88,,9.1,10.2,89,,
42.0166667,-115.0000000,20150210,"RAFT, GOOSE, SALMON FALLS, BRUNEAU",871,"15G02S","Wilson Creek","7120",9.5,9.9,96,,14.5,11.6,125,,
,,,,"RAFT, GOOSE, SALMON FALLS, BRUNEAU",,,Basin Index (%),"","",106,,"","",106,, 
43.7500000,-115.2333333,20150210,"WEISER, PAYETTE, BOISE",306,"15F04S","Atlanta Summit","7580",22.7,20.0,114,,27.1,22.8,119,,
44.3000000,-115.2333333,20150210,"WEISER, PAYETTE, BOISE",312,"15E11S","Banner Summit","7040",17.3,16.8,103,,22.0,21.0,105,,
44.9500000,-116.1500000,20150210,"WEISER, PAYETTE, BOISE",319,"16E11S","Bear Basin","5350",9.6,11.5,83,,18.2,17.2,106,,
44.6000000,-116.9833333,20150210,"WEISER, PAYETTE, BOISE",324,"16E10S","Bear Saddle","6180",11.0,17.3,64,,17.7,17.8,99,,
44.6333333,-115.8000000,20150210,"WEISER, PAYETTE, BOISE",338,"15E02S","Big Creek Summit","6560",19.3,22.5,86,,25.4,24.9,102,,
45.0500000,-116.1333333,20150210,"WEISER, PAYETTE, BOISE",370,"16D09S","Brundage Reservoir","6250",19.6,18.8,104,,29.6,25.8,115,,
44.2833333,-115.6500000,20150210,"WEISER, PAYETTE, BOISE",423,"15E08S","Cozy Cove","5400",6.8,10.5,65,,17.9,17.6,102,,
44.5500000,-115.5666667,20150210,"WEISER, PAYETTE, BOISE",439,"15E04S","Deadwood Summit","6860",26.9,26.2,103,,28.6,31.0,92,,
43.6000000,-114.6666667,20150210,"WEISER, PAYETTE, BOISE",450,"14F08S","Dollarhide Summit","8420",20.1,-998,,-997,16.3,18.1,90,,
43.9500000,-115.2666667,20150210,"WEISER, PAYETTE, BOISE",496,"15F14S","Graham Guard Sta.","5690",8.3,10.1,82,,20.1,16.1,125,,
44.0500000,-115.4500000,20150210,"WEISER, PAYETTE, BOISE",550,"15E09S","Jackson Peak","7070",18.0,18.9,95,,24.6,23.0,107,,
43.9333333,-115.6666667,20150210,"WEISER, PAYETTE, BOISE",637,"15F01S","Mores Creek Summit","6100",19.6,21.1,93,,29.3,25.3,116,,
43.5000000,-115.5666667,20150210,"WEISER, PAYETTE, BOISE",704,"15F06S","Prairie","4800",1.2,4.5,27,,15.9,10.7,149,,
45.1833333,-115.9666667,20150210,"WEISER, PAYETTE, BOISE",740,"15D01S","Secesh Summit","6540",20.3,20.7,98,,21.4,23.0,93,,
44.7666667,-116.2500000,20150210,"WEISER, PAYETTE, BOISE",782,"16E05S","Squaw Flat","6240",9.0,14.0,64,,21.2,21.2,100,,
43.6333333,-115.4333333,20150210,"WEISER, PAYETTE, BOISE",830,"15F05S","Trinity Mtn.","7770",25.7,25.7,100,,28.3,27.7,102,,
43.8000000,-114.8500000,20150210,"WEISER, PAYETTE, BOISE",845,"14F04S","Vienna Mine","8960",24.3,20.7,117,,25.0,21.2,118,,
45.0666667,-116.4500000,20150210,"WEISER, PAYETTE, BOISE",855,"16D08S","West Branch","5560",11.0,15.2,72,,23.1,21.6,107,,
,,,,"WEISER, PAYETTE, BOISE",,,Basin Index (%),"","",92,,"","",107,, 
41.7666667,-115.7000000,20150210,"OWYHEE MALHEUR",336,"15H04S","Big Bend","6898",3.6,6.8,53,,7.0,7.6,92,,
44.2500000,-118.5166667,20150210,"OWYHEE MALHEUR",357,"18E16S","Blue Mountain Spring","5870",8.2,11.9,69,,18.6,17.9,104,,
41.8166667,-116.1000000,20150210,"OWYHEE MALHEUR",476,"16H08S","Fawn Creek","7031",10.2,10.9,94,,13.9,15.0,93,,
41.5500000,-116.0000000,20150210,"OWYHEE MALHEUR",548,"16H02S","Jack Creek Upper","7377",10.5,10.7,98,,14.3,13.5,106,,
41.5166667,-116.0166667,20150210,"OWYHEE MALHEUR",549,"16H04S","Jacks Peak","8424",-999,-998,,-997,14.4,17.3,83,,
44.2166667,-118.6333333,20150210,"OWYHEE MALHEUR",563,"18E18S","Lake Creek R.S.","5240",5.9,10.1,58,,14.6,13.8,106,,
41.7833333,-116.0333333,20150210,"OWYHEE MALHEUR",573,"16H05S","Laurel Draw","6682",3.6,8.5,42,,12.7,12.5,102,,
42.6000000,-116.5666667,20150210,"OWYHEE MALHEUR",654,"16G07S","Mud Flat","5730",0.0,5.6,0,,8.6,8.0,108,,
42.7666667,-116.9000000,20150210,"OWYHEE MALHEUR",774,"16G01S","South Mtn.","6500",4.2,12.8,33,,16.8,16.4,102,,
41.2333333,-116.0333333,20150210,"OWYHEE MALHEUR",811,"15H09S","Taylor Canyon","6325",0.0,4.4,0,,5.6,6.0,93,,
,,,,"OWYHEE MALHEUR",,,Basin Index (%),"","",57,,"","",99,, 
45.2166667,-117.2000000,20150210,"GRAND RONDE, POWDER, BURNT, IMNAHA",302,"17D02S","Aneroid Lake #2","7400",11.8,16.0,74,,23.2,20.9,111,,
45.1500000,-118.2166667,20150210,"GRAND RONDE, POWDER, BURNT, IMNAHA",331,"18D09S","Beaver Reservoir","5150",2.9,7.1,41,,14.6,13.9,105,,
44.8333333,-118.1833333,20150210,"GRAND RONDE, POWDER, BURNT, IMNAHA",361,"18E05S","Bourne","5850",7.3,12.0,61,,18.3,17.1,107,,
45.1833333,-118.5500000,20150210,"GRAND RONDE, POWDER, BURNT, IMNAHA",422,"18D08S","County Line","4830",0.0,4.2,0,,10.7,10.1,106,,
44.8666667,-118.1166667,20150210,"GRAND RONDE, POWDER, BURNT, IMNAHA",464,"18E03S","Eilertson Meadows","5510",2.3,8.5,27,,19.5,14.5,134,,
44.7666667,-118.3166667,20150210,"GRAND RONDE, POWDER, BURNT, IMNAHA",494,"18E08S","Gold Center","5410",5.6,7.6,74,,13.7,12.6,109,,
45.2666667,-117.6833333,20150210,"GRAND RONDE, POWDER, BURNT, IMNAHA",647,"17D06S","Moss Springs","5760",13.7,17.1,80,,27.3,24.0,114,,
45.2666667,-117.1666667,20150210,"GRAND RONDE, POWDER, BURNT, IMNAHA",653,"17D18S","Mt. Howard","7910",11.4,10.3,111,,20.4,18.9,108,,
45.0000000,-117.1666667,20150210,"GRAND RONDE, POWDER, BURNT, IMNAHA",736,"17D08S","Schneider Meadows","5400",16.8,22.0,76,,26.8,26.7,100,,
45.0833333,-117.5500000,20150210,"GRAND RONDE, POWDER, BURNT, IMNAHA",812,"17D07S","Taylor Green","5740",11.2,15.2,74,,20.7,19.2,108,,
45.0666667,-118.1500000,20150210,"GRAND RONDE, POWDER, BURNT, IMNAHA",873,"18D21S","Wolf Creek","5630",7.5,12.6,60,,14.9,14.5,103,,
,,,,"GRAND RONDE, POWDER, BURNT, IMNAHA",,,Basin Index (%),"","",68,,"","",109,, 
44.3000000,-115.2333333,20150210,"CLEARWATER AND SALMON",312,"15E11S","Banner Summit","7040",17.3,16.8,103,,22.0,21.0,105,,
44.4666667,-112.9833333,20150210,"CLEARWATER AND SALMON",318,"12E08S","Beagle Springs","8850",5.6,5.5,102,,5.0,6.8,74,,
44.9500000,-116.1500000,20150210,"CLEARWATER AND SALMON",319,"16E11S","Bear Basin","5350",9.6,11.5,83,,18.2,17.2,106,,
44.6333333,-115.8000000,20150210,"CLEARWATER AND SALMON",338,"15E02S","Big Creek Summit","6560",19.3,22.5,86,,25.4,24.9,102,,
45.0500000,-116.1333333,20150210,"CLEARWATER AND SALMON",370,"16D09S","Brundage Reservoir","6250",19.6,18.8,104,,29.6,25.8,115,,
46.7666667,-115.3000000,20150210,"CLEARWATER AND SALMON",411,"15C16S","Cool Creek","6280",27.2,31.6,86,,37.5,39.8,94,,
46.5666667,-115.2833333,20150210,"CLEARWATER AND SALMON",425,"15C09S","Crater Meadows","5960",34.0,31.0,110,,42.5,35.2,121,,
45.1666667,-113.5833333,20150210,"CLEARWATER AND SALMON",436,"13D19S","Darkhorse Lake","8945",25.1,18.6,135,,22.7,19.1,119,,
44.5500000,-115.5666667,20150210,"CLEARWATER AND SALMON",439,"15E04S","Deadwood Summit","6860",26.9,26.2,103,,28.6,31.0,92,,
46.8333333,-116.1166667,20150210,"CLEARWATER AND SALMON",466,"16C20S","Elk Butte","5690",18.2,25.6,71,,28.0,32.9,85,,
43.8833333,-114.6666667,20150210,"CLEARWATER AND SALMON",489,"14F17S","Galena","7470",13.3,11.7,114,,14.7,13.3,111,,
43.8666667,-114.7166667,20150210,"CLEARWATER AND SALMON",490,"14F12S","Galena Summit","8780",16.4,12.6,130,,16.8,14.0,120,,
46.4833333,-115.6333333,20150210,"CLEARWATER AND SALMON",520,"15C06S","Hemlock Butte","5810",23.9,31.2,77,,34.8,35.7,97,,
46.9833333,-115.0333333,20150210,"CLEARWATER AND SALMON",530,"15C10S","Hoodoo Basin","6050",23.9,27.3,88,,33.8,33.4,101,,
45.0000000,-113.4500000,20150210,"CLEARWATER AND SALMON",576,"13E23S","Lemhi Ridge","8100",8.2,6.8,121,,9.7,8.6,113,,
46.6333333,-114.5833333,20150210,"CLEARWATER AND SALMON",588,"14C05S","Lolo Pass","5240",18.8,19.3,97,,29.4,24.5,120,,
47.0833333,-115.9666667,20150210,"CLEARWATER AND SALMON",600,"15B14S","Lost Lake","6110",27.4,39.9,69,,38.1,41.9,91,,
44.4333333,-113.3166667,20150210,"CLEARWATER AND SALMON",620,"13E18S","Meadow Lake","9150",10.5,10.0,105,,11.2,11.6,97,,
44.4666667,-114.4833333,20150210,"CLEARWATER AND SALMON",627,"14E01S","Mill Creek Summit","8800",14.4,12.5,115,,13.5,13.1,103,,
44.4166667,-113.4000000,20150210,"CLEARWATER AND SALMON",636,"13E06S","Moonshine","7440",8.8,6.4,138,,10.4,8.8,118,,
45.6666667,-113.9500000,20150210,"CLEARWATER AND SALMON",638,"13D16S","Moose Creek","6200",15.1,11.9,127,,18.4,14.5,127,,
44.8500000,-114.2666667,20150210,"CLEARWATER AND SALMON",639,"14E04S","Morgan Creek","7600",8.3,7.3,114,,11.2,10.7,105,,
45.7000000,-115.2333333,20150210,"CLEARWATER AND SALMON",650,"15D06S","Mountain Meadows","6320",18.1,14.4,126,,24.3,17.9,136,,
45.7333333,-114.4833333,20150210,"CLEARWATER AND SALMON",662,"14D02S","Nez Perce Camp","5650",10.9,9.2,118,,20.0,14.4,139,,
45.7000000,-113.9666667,20150210,"CLEARWATER AND SALMON",727,"13D22S","Saddle Mtn.","7940",21.4,16.6,129,,17.4,16.3,107,,
46.4666667,-114.6333333,20150210,"CLEARWATER AND SALMON",735,"14C04S","Savage Pass","6190",17.3,17.5,99,,23.7,21.5,110,,
45.1833333,-115.9666667,20150210,"CLEARWATER AND SALMON",740,"15D01S","Secesh Summit","6540",20.3,20.7,98,,21.4,23.0,93,,
46.5666667,-115.7500000,20150210,"CLEARWATER AND SALMON",747,"15C04S","Shanghi Summit","4600",9.4,18.2,52,,31.3,28.7,109,,
46.9500000,-116.3333333,20150210,"CLEARWATER AND SALMON",752,"16C01S","Sherwin","3200",2.3,8.3,28,,20.2,21.0,96,,
44.7666667,-116.2500000,20150210,"CLEARWATER AND SALMON",782,"16E05S","Squaw Flat","6240",9.0,14.0,64,,21.2,21.2,100,,
46.1500000,-114.4500000,20150210,"CLEARWATER AND SALMON",835,"14C13S","Twelvemile Creek","5600",11.3,11.9,95,,30.6,22.9,134,,
46.1500000,-114.5000000,20150210,"CLEARWATER AND SALMON",836,"14C12S","Twin Lakes","6400",30.7,26.0,118,,39.4,31.9,124,,
43.8000000,-114.8500000,20150210,"CLEARWATER AND SALMON",845,"14F04S","Vienna Mine","8960",24.3,20.7,117,,25.0,21.2,118,,
45.0666667,-116.4500000,20150210,"CLEARWATER AND SALMON",855,"16D08S","West Branch","5560",11.0,15.2,72,,23.1,21.6,107,,
,,,,"CLEARWATER AND SALMON",,,Basin Index (%),"","",97,,"","",107,, 
45.1833333,-119.2500000,20150210,"UMATILLA, WALLA WALLA, WILLOW",304,"19D02S","Arbuckle Mtn","5770",7.6,13.3,57,,17.4,17.5,99,,
45.3666667,-118.4666667,20150210,"UMATILLA, WALLA WALLA, WILLOW",362,"18D20S","Bowman Springs","4530",0.6,6.7,9,,13.8,12.5,110,,
45.5500000,-118.4500000,20150210,"UMATILLA, WALLA WALLA, WILLOW",470,"18D04S","Emigrant Springs","3800",0.0,5.3,0,,19.7,16.7,118,,
45.7000000,-118.1000000,20150210,"UMATILLA, WALLA WALLA, WILLOW",523,"18D19S","High Ridge","4920",10.4,17.1,61,,28.2,26.7,106,,
46.1166667,-117.8500000,20150210,"UMATILLA, WALLA WALLA, WILLOW",824,"17C05S","Touchet","5530",10.7,22.4,48,,30.6,31.7,97,,
,,,,"UMATILLA, WALLA WALLA, WILLOW",,,Basin Index (%),"","",45,,"","",104,, 
45.1833333,-119.2500000,20150210,"DESCHUTES, CROOKED, JOHN DAY",304,"19D02S","Arbuckle Mtn","5770",7.6,13.3,57,,17.4,17.5,99,,
44.2500000,-118.5166667,20150210,"DESCHUTES, CROOKED, JOHN DAY",357,"18E16S","Blue Mountain Spring","5870",8.2,11.9,69,,18.6,17.9,104,,
43.5833333,-122.0666667,20150210,"DESCHUTES, CROOKED, JOHN DAY",388,"22F03S","Cascade Summit","5100",5.8,20.9,28,,44.6,37.8,118,,
43.2333333,-121.8000000,20150210,"DESCHUTES, CROOKED, JOHN DAY",395,"21F22S","Chemult Alternate","4850",0.0,8.1,0,,18.7,15.7,119,,
44.4500000,-119.9333333,20150210,"DESCHUTES, CROOKED, JOHN DAY",440,"19E03S","Derr.","5850",7.0,10.7,65,,14.5,14.8,98,,
44.4166667,-121.8500000,20150210,"DESCHUTES, CROOKED, JOHN DAY",526,"21E06S","Hogg Pass","4790",0.0,14.9,0,,37.7,45.5,83,,
43.8000000,-121.9500000,20150210,"DESCHUTES, CROOKED, JOHN DAY",545,"21F21S","Irish Taylor","5540",8.1,24.4,33,,27.6,38.6,72,,
45.2666667,-118.8500000,20150210,"DESCHUTES, CROOKED, JOHN DAY",605,"18D06S","Lucky Strike","4970",0.0,6.3,0,,13.9,12.9,108,,
43.5166667,-121.9833333,20150210,"DESCHUTES, CROOKED, JOHN DAY",660,"21F10S","New Crescent Lake","4910",0.0,10.7,0,,28.6,23.1,124,,
44.4333333,-120.3333333,20150210,"DESCHUTES, CROOKED, JOHN DAY",671,"20E02S","Ochoco Meadows","5430",0.0,7.6,0,,13.9,14.6,95,,
44.2666667,-119.0166667,20150210,"DESCHUTES, CROOKED, JOHN DAY",789,"19E07S","Starr Ridge","5250",0.0,5.4,0,,11.2,10.0,112,,
44.1500000,-121.6333333,20150210,"DESCHUTES, CROOKED, JOHN DAY",815,"21E13S","Three Creeks Meadow","5690",3.5,13.4,26,,31.3,25.5,123,,
44.6500000,-118.4333333,20150210,"DESCHUTES, CROOKED, JOHN DAY",821,"18E09S","Tipton","5150",6.2,9.3,67,,13.3,12.9,103,,
,,,,"DESCHUTES, CROOKED, JOHN DAY",,,Basin Index (%),"","",30,,"","",102,, 
45.1000000,-119.5000000,20150210,"LOWER COLUMBIA, HOOD RIVER",608,"19D03S","Madison Butte","5150",0.0,4.0,0,,8.0,8.9,90,,
45.4333333,-121.8500000,20150210,"LOWER COLUMBIA, HOOD RIVER",351,"21D33S","Blazed Alder","3650",0.0,20.9,0,,74.9,68.9,109,,
45.1833333,-121.6833333,20150210,"LOWER COLUMBIA, HOOD RIVER",401,"21D12S","Clear Lake","3810",0.0,10.6,0,,26.3,26.5,99,,
45.6166667,-121.7000000,20150210,"LOWER COLUMBIA, HOOD RIVER",504,"21D01S","Greenpoint","3310",0.0,15.0,0,,48.4,44.4,109,,
45.5500000,-122.0000000,20150210,"LOWER COLUMBIA, HOOD RIVER",666,"22D02S","North Fork","3060",0.0,12.7,0,,90.6,83.8,108,,
45.4666667,-121.7000000,20150210,"LOWER COLUMBIA, HOOD RIVER",712,"21D04S","Red Hill","4410",0.0,35.3,0,,62.7,64.9,97,,
,,,,"LOWER COLUMBIA, HOOD RIVER",,,Basin Index (%),"","",0,,"","",105,, 
43.4500000,-122.1333333,20150210,"WILLAMETTE",801,"22F14S","Summit Lake","5610",8.4,25.3,33,,29.5,40.5,73,,
43.8000000,-121.9500000,20150210,"WILLAMETTE",545,"21F21S","Irish Taylor","5540",8.1,24.4,33,,27.6,38.6,72,,
43.5833333,-122.0666667,20150210,"WILLAMETTE",388,"22F03S","Cascade Summit","5100",5.8,20.9,28,,44.6,37.8,118,,
43.9000000,-122.0333333,20150210,"WILLAMETTE",719,"22F43S","Roaring River","4950",0.0,19.8,0,,44.3,39.6,112,,
43.6666667,-122.5666667,20150210,"WILLAMETTE",529,"22F42S","Holland Meadows","4930",0.0,15.5,0,,48.8,42.0,116,,
44.2166667,-121.8666667,20150210,"WILLAMETTE",619,"21E07S","Mckenzie","4770",5.2,30.3,17,,57.0,54.5,105,,
44.4166667,-121.8500000,20150210,"WILLAMETTE",526,"21E06S","Hogg Pass","4790",0.0,14.9,0,,37.7,45.5,83,,
43.6166667,-122.1166667,20150210,"WILLAMETTE",729,"22F04S","Salt Creek Falls","4220",0.0,14.1,0,,52.3,41.2,127,,
45.2500000,-121.7333333,20150210,"WILLAMETTE",655,"21D35S","Mud Ridge","4070",2.1,20.6,10,,43.9,39.9,110,,
44.6166667,-122.2333333,20150210,"WILLAMETTE",584,"22E09S","Little Meadows","4020",0.0,17.4,0,,69.2,66.4,104,,
45.1833333,-121.6833333,20150210,"WILLAMETTE",401,"21D12S","Clear Lake","3810",0.0,10.6,0,,26.3,26.5,99,,
44.4333333,-121.9500000,20150210,"WILLAMETTE",733,"21E05S","Santiam Jct.","3740",0.0,13.6,0,,43.4,43.2,100,,
44.5166667,-122.0833333,20150210,"WILLAMETTE",434,"22E08S","Daly Lake","3690",0.0,10.7,0,,51.8,48.9,106,,
44.3833333,-122.1666667,20150210,"WILLAMETTE",552,"22E07S","Jump Off Joe","3520",0.0,9.3,0,,55.2,47.7,116,,
45.0333333,-121.9333333,20150210,"WILLAMETTE",687,"21D14S","Peavine Ridge","3420",0.0,10.8,0,,37.1,37.8,98,,
45.1000000,-121.7500000,20150210,"WILLAMETTE",398,"21D13S","Clackamas Lake","3400",0.0,10.4,0,,32.7,32.6,100,,
45.5500000,-123.3666667,20150210,"WILLAMETTE",726,"23D01S","Saddle Mountain","3110",0.0,-998,,-997,63.2,60.5,104,,
43.6666667,-122.2166667,20150210,"WILLAMETTE",710,"22F05S","Railroad Overpass","2680",0.0,0.0,,-997,36.0,29.8,121,,
44.6000000,-121.9666667,20150210,"WILLAMETTE",614,"21E04S","Marion Forks","2590",0.0,6.7,0,,46.8,48.4,97,,
45.5333333,-123.3000000,20150210,"WILLAMETTE",743,"23D02S","Seine Creek","2060",0.0,0.0,,-997,42.4,44.7,95,,
45.2500000,-123.2833333,20150210,"WILLAMETTE",1084,"23D03S","Miller Woods","420",0.0,-998,,-997,39.8,-998,,-997,
,,,,"WILLAMETTE",,,Basin Index (%),"","",11,,"","",103,, 
46.1500000,-122.1500000,20150210,"LEWIS, COWLITZ",553,"22C09S","June Lake","3440",0.0,29.4,0,,104.2,99.4,105,,
46.2666667,-121.9666667,20150210,"LEWIS, COWLITZ",591,"21C26S","Lone Pine","3930",1.1,25.0,4,,65.2,57.6,113,,
46.7833333,-121.7500000,20150210,"LEWIS, COWLITZ",679,"21C35S","Paradise","5130",19.4,47.6,41,,79.1,67.2,118,,
46.6166667,-121.3833333,20150210,"LEWIS, COWLITZ",692,"21C33S","Pigtail Peak","5800",17.3,36.4,48,,46.3,46.4,100,,
46.3500000,-121.5166667,20150210,"LEWIS, COWLITZ",702,"21C14S","Potato Hill","4510",9.7,18.7,52,,45.7,38.3,119,,
46.2000000,-122.2500000,20150210,"LEWIS, COWLITZ",748,"22C10S","Sheep Canyon","3990",0.0,23.1,0,,92.9,71.9,129,,
46.1833333,-121.9333333,20150210,"LEWIS, COWLITZ",776,"21C20S","Spencer Meadow","3400",0.0,24.1,0,,65.3,59.5,110,,
46.2666667,-122.1833333,20150210,"LEWIS, COWLITZ",777,"22C12S","Spirit Lake","3520",0.0,3.2,0,,56.6,52.1,109,,
46.3500000,-121.0833333,20150210,"LEWIS, COWLITZ",599,"21C39S","Lost Horse","5120",1.9,14.7,13,,17.0,20.6,83,,
46.1000000,-121.7666667,20150210,"LEWIS, COWLITZ",804,"21C13S","Surprise Lakes","4290",10.0,35.4,28,,63.4,57.7,110,,
,,,,"LEWIS, COWLITZ",,,Basin Index (%),"","",23,,"","",111,, 
47.0166667,-121.4666667,20150210,"WHITE, GREEN, CEDAR, SKYKOMISH, SNOQUALMI, BAKER, SKAGIT",418,"21B13S","Corral Pass","5800",12.6,24.5,51,,34.1,33.2,103,,
47.2833333,-121.4666667,20150210,"WHITE, GREEN, CEDAR, SKYKOMISH, SNOQUALMI, BAKER, SKAGIT",897,"21B59S","Meadows Pass","3230",1.9,17.9,11,,59.3,56.1,106,,
47.3500000,-121.5666667,20150210,"WHITE, GREEN, CEDAR, SKYKOMISH, SNOQUALMI, BAKER, SKAGIT",898,"21B21S","Mount Gardner","2920",0.0,13.5,0,,60.3,58.4,103,,
47.3333333,-121.4666667,20150210,"WHITE, GREEN, CEDAR, SKYKOMISH, SNOQUALMI, BAKER, SKAGIT",899,"21B20S","Tinkham Creek","2990",2.2,21.4,10,,61.0,61.1,100,,
47.2833333,-121.6666667,20150210,"WHITE, GREEN, CEDAR, SKYKOMISH, SNOQUALMI, BAKER, SKAGIT",420,"21B42S","Cougar Mountain","3200",0.0,12.6,0,,58.8,53.8,109,,
47.3666667,-121.4500000,20150210,"WHITE, GREEN, CEDAR, SKYKOMISH, SNOQUALMI, BAKER, SKAGIT",672,"21B55S","Olallie Meadows","4030",9.1,36.2,25,,71.2,71.9,99,,
48.5166667,-120.7333333,20150210,"WHITE, GREEN, CEDAR, SKYKOMISH, SNOQUALMI, BAKER, SKAGIT",711,"20A09S","Rainy Pass","4890",25.0,27.0,93,,41.5,33.5,124,,
47.1666667,-121.4166667,20150210,"WHITE, GREEN, CEDAR, SKYKOMISH, SNOQUALMI, BAKER, SKAGIT",1068,"21B31S","Sawmill Ridge","4640",4.0,-998,,-997,40.7,-998,,-997,
47.2666667,-121.3333333,20150210,"WHITE, GREEN, CEDAR, SKYKOMISH, SNOQUALMI, BAKER, SKAGIT",788,"21B10S","Stampede Pass","3850",6.3,29.5,21,,48.1,53.0,91,,
48.5333333,-120.9833333,20150210,"WHITE, GREEN, CEDAR, SKYKOMISH, SNOQUALMI, BAKER, SKAGIT",817,"20A07S","Thunder Basin","4320",15.0,23.9,63,,55.3,43.5,127,,
,,,,"WHITE, GREEN, CEDAR, SKYKOMISH, SNOQUALMI, BAKER, SKAGIT",,,Basin Index (%),"","",35,,"","",105,,