YYYYMMDD,lat,long,basin_name,station_id,acton_id,station_name,elevation,wteq_amt,wteq_med,wteq_amt_pct_med,prec_wytd_amt,prec_wytd_avg,prec_wytd_pctavg
1990-02-10,48.5666667,-115.45,KOOTENAI RIVER IN MONTANA,311,15A08S,Banfield Mountain,5600,17.2,12.2,141.0,23.8,17.8,134.0
1990-02-10,45.0,-117.1666667,"GRAND RONDE, POWDER, BURNT, IMNAHA",736,17D08S,Schneider Meadows,5400,21.6,22.0,98.0,21.3,26.7,80.0
1990-02-10,45.0833333,-117.55,"GRAND RONDE, POWDER, BURNT, IMNAHA",812,17D07S,Taylor Green,5740,9.8,15.2,64.0,15.0,19.2,78.0
1990-02-10,45.0666667,-118.15,"GRAND RONDE, POWDER, BURNT, IMNAHA",873,18D21S,Wolf Creek,5630,8.4,12.6,67.0,10.2,14.5,70.0
1990-02-10,44.3,-115.23333329999998,CLEARWATER AND SALMON,312,15E11S,Banner Summit,7040,15.1,16.8,90.0,18.4,21.0,88.0
1990-02-10,44.46666670000001,-112.98333329999998,CLEARWATER AND SALMON,318,12E08S,Beagle Springs,8850,5.8,5.5,105.0,9.3,6.8,137.0
1990-02-10,44.95,-116.15,CLEARWATER AND SALMON,319,16E11S,Bear Basin,5350,8.5,11.5,74.0,12.9,17.2,75.0
1990-02-10,44.6333333,-115.8,CLEARWATER AND SALMON,338,15E02S,Big Creek Summit,6560,17.5,22.5,78.0,19.4,24.9,78.0
1990-02-10,45.05,-116.1333333,CLEARWATER AND SALMON,370,16D09S,Brundage Reservoir,6250,16.4,18.8,87.0,20.9,25.8,81.0
1990-02-10,46.7666667,-115.3,CLEARWATER AND SALMON,411,15C16S,Cool Creek,6280,40.5,31.6,128.0,50.8,39.8,128.0
1990-02-10,46.5666667,-115.28333329999998,CLEARWATER AND SALMON,425,15C09S,Crater Meadows,5960,32.0,31.0,103.0,36.6,35.2,104.0
1990-02-10,45.1666667,-113.5833333,CLEARWATER AND SALMON,436,13D19S,Darkhorse Lake,8945,16.4,18.6,88.0,18.2,19.1,95.0
1990-02-10,44.55,-115.5666667,CLEARWATER AND SALMON,439,15E04S,Deadwood Summit,6860,23.3,26.2,89.0,27.0,31.0,87.0
1990-02-10,46.8333333,-116.1166667,CLEARWATER AND SALMON,466,16C20S,Elk Butte,5690,30.4,25.6,119.0,37.6,32.9,114.0
1990-02-10,43.8833333,-114.6666667,CLEARWATER AND SALMON,489,14F17S,Galena,7470,9.3,11.7,79.0,11.5,13.3,86.0
1990-02-10,43.8666667,-114.71666670000002,CLEARWATER AND SALMON,490,14F12S,Galena Summit,8780,9.7,12.6,77.0,11.9,14.0,85.0
1990-02-10,46.4833333,-115.6333333,CLEARWATER AND SALMON,520,15C06S,Hemlock Butte,5810,36.1,31.2,116.0,40.0,35.7,112.0
1990-02-10,46.9833333,-115.03333329999998,CLEARWATER AND SALMON,530,15C10S,Hoodoo Basin,6050,34.2,27.3,125.0,43.6,33.4,131.0
1990-02-10,46.5666667,-115.75,CLEARWATER AND SALMON,747,15C04S,Shanghi Summit,4600,19.0,18.2,104.0,28.1,28.7,98.0
1990-02-10,45.1833333,-115.96666670000002,CLEARWATER AND SALMON,740,15D01S,Secesh Summit,6540,18.9,20.7,91.0,21.9,23.0,95.0
1990-02-10,46.46666670000001,-114.6333333,CLEARWATER AND SALMON,735,14C04S,Savage Pass,6190,19.5,17.5,111.0,23.9,21.5,111.0
1990-02-10,45.7,-113.96666670000002,CLEARWATER AND SALMON,727,13D22S,Saddle Mtn.,7940,17.9,16.6,108.0,17.0,16.3,104.0
1990-02-10,45.7333333,-114.48333329999998,CLEARWATER AND SALMON,662,14D02S,Nez Perce Camp,5650,10.2,9.2,111.0,15.7,14.4,109.0
1990-02-10,45.7,-115.23333329999998,CLEARWATER AND SALMON,650,15D06S,Mountain Meadows,6320,14.5,14.4,101.0,17.8,17.9,99.0
1990-02-10,45.2666667,-117.1666667,"GRAND RONDE, POWDER, BURNT, IMNAHA",653,17D18S,Mt. Howard,7910,11.1,10.3,108.0,19.4,18.9,103.0
1990-02-10,44.85,-114.26666670000002,CLEARWATER AND SALMON,639,14E04S,Morgan Creek,7600,6.6,7.3,90.0,8.7,10.7,81.0
1990-02-10,44.4166667,-113.4,CLEARWATER AND SALMON,636,13E06S,Moonshine,7440,6.7,6.4,105.0,8.9,8.8,101.0
1990-02-10,44.46666670000001,-114.48333329999998,CLEARWATER AND SALMON,627,14E01S,Mill Creek Summit,8800,11.8,12.5,94.0,11.2,13.1,85.0
1990-02-10,44.4333333,-113.3166667,CLEARWATER AND SALMON,620,13E18S,Meadow Lake,9150,10.7,10.0,107.0,13.8,11.6,119.0
1990-02-10,47.0833333,-115.96666670000002,CLEARWATER AND SALMON,600,15B14S,Lost Lake,6110,45.1,39.9,113.0,51.9,41.9,124.0
1990-02-10,46.6333333,-114.5833333,CLEARWATER AND SALMON,588,14C05S,Lolo Pass,5240,24.1,19.3,125.0,32.6,24.5,133.0
1990-02-10,45.0,-113.45,CLEARWATER AND SALMON,576,13E23S,Lemhi Ridge,8100,6.0,6.8,88.0,8.6,8.6,100.0
1990-02-10,45.6666667,-113.95,CLEARWATER AND SALMON,638,13D16S,Moose Creek,6200,10.2,11.9,86.0,13.0,14.5,90.0
1990-02-10,44.7666667,-116.25,CLEARWATER AND SALMON,782,16E05S,Squaw Flat,6240,11.8,14.0,84.0,15.6,21.2,74.0
1990-02-10,45.2666667,-117.6833333,"GRAND RONDE, POWDER, BURNT, IMNAHA",647,17D06S,Moss Springs,5760,13.7,17.1,80.0,20.7,24.0,86.0
1990-02-10,44.8666667,-118.1166667,"GRAND RONDE, POWDER, BURNT, IMNAHA",464,18E03S,Eilertson Meadows,5510,4.6,8.5,54.0,11.0,14.5,76.0
1990-02-10,44.3,-115.23333329999998,"WEISER, PAYETTE, BOISE",312,15E11S,Banner Summit,7040,15.1,16.8,90.0,18.4,21.0,88.0
1990-02-10,44.95,-116.15,"WEISER, PAYETTE, BOISE",319,16E11S,Bear Basin,5350,8.5,11.5,74.0,12.9,17.2,75.0
1990-02-10,44.6,-116.98333329999998,"WEISER, PAYETTE, BOISE",324,16E10S,Bear Saddle,6180,10.0,17.3,58.0,11.8,17.8,66.0
1990-02-10,44.6333333,-115.8,"WEISER, PAYETTE, BOISE",338,15E02S,Big Creek Summit,6560,17.5,22.5,78.0,19.4,24.9,78.0
1990-02-10,45.05,-116.1333333,"WEISER, PAYETTE, BOISE",370,16D09S,Brundage Reservoir,6250,16.4,18.8,87.0,20.9,25.8,81.0
1990-02-10,44.2833333,-115.65,"WEISER, PAYETTE, BOISE",423,15E08S,Cozy Cove,5400,8.9,10.5,85.0,12.5,17.6,71.0
1990-02-10,44.55,-115.5666667,"WEISER, PAYETTE, BOISE",439,15E04S,Deadwood Summit,6860,23.3,26.2,89.0,27.0,31.0,87.0
1990-02-10,43.6,-114.6666667,"WEISER, PAYETTE, BOISE",450,14F08S,Dollarhide Summit,8420,11.5,14.0,103.0,14.8,18.1,82.0
1990-02-10,43.95,-115.26666670000002,"WEISER, PAYETTE, BOISE",496,15F14S,Graham Guard Sta.,5690,8.4,10.1,83.0,13.4,16.1,83.0
1990-02-10,44.05,-115.45,"WEISER, PAYETTE, BOISE",550,15E09S,Jackson Peak,7070,15.9,18.9,84.0,19.3,23.0,84.0
1990-02-10,43.9333333,-115.6666667,"WEISER, PAYETTE, BOISE",637,15F01S,Mores Creek Summit,6100,16.8,21.1,80.0,20.4,25.3,81.0
1990-02-10,43.5,-115.5666667,"WEISER, PAYETTE, BOISE",704,15F06S,Prairie,4800,4.6,4.5,102.0,8.6,10.7,80.0
1990-02-10,45.1833333,-115.96666670000002,"WEISER, PAYETTE, BOISE",740,15D01S,Secesh Summit,6540,18.9,20.7,91.0,21.9,23.0,95.0
1990-02-10,44.7666667,-116.25,"WEISER, PAYETTE, BOISE",782,16E05S,Squaw Flat,6240,11.8,14.0,84.0,15.6,21.2,74.0
1990-02-10,43.6333333,-115.4333333,"WEISER, PAYETTE, BOISE",830,15F05S,Trinity Mtn.,7770,18.1,25.7,70.0,21.1,27.7,76.0
1990-02-10,43.8,-114.85,"WEISER, PAYETTE, BOISE",845,14F04S,Vienna Mine,8960,18.0,20.7,87.0,18.6,21.2,88.0
1990-02-10,45.0666667,-116.45,"WEISER, PAYETTE, BOISE",855,16D08S,West Branch,5560,15.2,15.2,100.0,18.9,21.6,88.0
1990-02-10,45.1833333,-118.55,"GRAND RONDE, POWDER, BURNT, IMNAHA",422,18D08S,County Line,4830,3.1,4.2,74.0,6.8,10.1,67.0
1990-02-10,44.8333333,-118.1833333,"GRAND RONDE, POWDER, BURNT, IMNAHA",361,18E05S,Bourne,5850,10.0,12.0,83.0,13.6,17.1,80.0
1990-02-10,45.15,-118.21666670000002,"GRAND RONDE, POWDER, BURNT, IMNAHA",331,18D09S,Beaver Reservoir,5150,8.5,7.1,120.0,9.9,13.9,71.0
1990-02-10,45.21666670000001,-117.2,"GRAND RONDE, POWDER, BURNT, IMNAHA",302,17D02S,Aneroid Lake #2,7400,16.1,16.0,101.0,18.1,20.9,87.0
1990-02-10,41.2333333,-116.03333329999998,OWYHEE MALHEUR,811,15H09S,Taylor Canyon,6325,2.1,4.4,48.0,4.8,6.0,80.0
1990-02-10,42.7666667,-116.9,OWYHEE MALHEUR,774,16G01S,South Mtn.,6500,9.3,12.8,73.0,13.2,16.4,80.0
1990-02-10,44.7666667,-118.3166667,"GRAND RONDE, POWDER, BURNT, IMNAHA",494,18E08S,Gold Center,5410,6.1,7.6,80.0,8.3,12.6,66.0
1990-02-10,42.6,-116.5666667,OWYHEE MALHEUR,654,16G07S,Mud Flat,5730,5.6,5.6,100.0,7.0,8.0,88.0
1990-02-10,44.21666670000001,-118.6333333,OWYHEE MALHEUR,563,18E18S,Lake Creek R.S.,5240,4.7,10.1,47.0,10.4,13.8,75.0
1990-02-10,41.5166667,-116.01666670000002,OWYHEE MALHEUR,549,16H04S,Jacks Peak,8424,14.65,14.0,103.0,13.6,17.3,79.0
1990-02-10,41.55,-116.0,OWYHEE MALHEUR,548,16H02S,Jack Creek Upper,7377,10.6,10.7,99.0,10.7,13.5,79.0
1990-02-10,41.8166667,-116.1,OWYHEE MALHEUR,476,16H08S,Fawn Creek,7031,14.2,10.9,130.0,14.8,15.0,99.0
1990-02-10,44.25,-118.51666670000002,OWYHEE MALHEUR,357,18E16S,Blue Mountain Spring,5870,12.1,11.9,102.0,15.8,17.9,88.0
1990-02-10,41.7666667,-115.7,OWYHEE MALHEUR,336,15H04S,Big Bend,6898,5.3,6.8,78.0,6.3,7.6,83.0
1990-02-10,41.7833333,-116.03333329999998,OWYHEE MALHEUR,573,16H05S,Laurel Draw,6682,7.7,8.5,91.0,10.5,12.5,84.0
1990-02-10,43.75,-115.23333329999998,"WEISER, PAYETTE, BOISE",306,15F04S,Atlanta Summit,7580,15.3,20.0,76.0,18.1,22.8,79.0
1990-02-10,46.15,-114.45,CLEARWATER AND SALMON,835,14C13S,Twelvemile Creek,5600,14.9,11.9,125.0,25.7,22.9,112.0
1990-02-10,43.8,-114.85,CLEARWATER AND SALMON,845,14F04S,Vienna Mine,8960,18.0,20.7,87.0,18.6,21.2,88.0
1990-02-10,45.1833333,-121.6833333,WILLAMETTE,401,21D12S,Clear Lake,3810,15.9,10.6,150.0,24.9,26.5,94.0
1990-02-10,44.4333333,-121.95,WILLAMETTE,733,21E05S,Santiam Jct.,3740,14.9,13.6,110.0,40.7,43.2,94.0
1990-02-10,44.5166667,-122.0833333,WILLAMETTE,434,22E08S,Daly Lake,3690,19.4,10.7,181.0,47.8,48.9,98.0
1990-02-10,44.3833333,-122.1666667,WILLAMETTE,552,22E07S,Jump Off Joe,3520,14.3,9.3,154.0,47.9,47.7,100.0
1990-02-10,45.0333333,-121.9333333,WILLAMETTE,687,21D14S,Peavine Ridge,3420,16.7,10.8,155.0,36.8,37.8,97.0
1990-02-10,45.1,-121.75,WILLAMETTE,398,21D13S,Clackamas Lake,3400,13.4,10.4,129.0,32.3,32.6,99.0
1990-02-10,45.55,-123.3666667,WILLAMETTE,726,23D01S,Saddle Mountain,3110,19.1,14.0,103.0,67.1,60.5,111.0
1990-02-10,43.6666667,-122.21666670000002,WILLAMETTE,710,22F05S,Railroad Overpass,2680,2.6,0.0,103.0,20.3,29.8,68.0
1990-02-10,44.6,-121.96666670000002,WILLAMETTE,614,21E04S,Marion Forks,2590,12.3,6.7,184.0,47.1,48.4,97.0
1990-02-10,45.5333333,-123.3,WILLAMETTE,743,23D02S,Seine Creek,2060,8.7,0.0,103.0,46.2,44.7,103.0
1990-02-10,45.25,-123.28333329999998,WILLAMETTE,1084,23D03S,Miller Woods,420,14.65,14.0,103.0,19.4,21.1,97.5
1990-02-10,46.15,-122.15,"LEWIS, COWLITZ",553,22C09S,June Lake,3440,40.9,29.4,139.0,110.6,99.4,111.0
1990-02-10,46.2666667,-121.96666670000002,"LEWIS, COWLITZ",591,21C26S,Lone Pine,3930,27.9,25.0,112.0,65.7,57.6,114.0
1990-02-10,46.7833333,-121.75,"LEWIS, COWLITZ",679,21C35S,Paradise,5130,52.2,47.6,110.0,74.9,67.2,111.0
1990-02-10,46.6166667,-121.3833333,"LEWIS, COWLITZ",692,21C33S,Pigtail Peak,5800,43.8,36.4,120.0,61.0,46.4,131.0
1990-02-10,46.35,-121.51666670000002,"LEWIS, COWLITZ",702,21C14S,Potato Hill,4510,21.1,18.7,113.0,42.0,38.3,110.0
1990-02-10,46.2,-122.25,"LEWIS, COWLITZ",748,22C10S,Sheep Canyon,3990,35.1,23.1,152.0,76.0,71.9,106.0
1990-02-10,48.5333333,-120.98333329999998,"WHITE, GREEN, CEDAR, SKYKOMISH, SNOQUALMI, BAKER, SKAGIT",817,20A07S,Thunder Basin,4320,38.7,23.9,162.0,53.0,43.5,122.0
1990-02-10,47.2666667,-121.3333333,"WHITE, GREEN, CEDAR, SKYKOMISH, SNOQUALMI, BAKER, SKAGIT",788,21B10S,Stampede Pass,3850,44.6,29.5,151.0,66.0,53.0,125.0
1990-02-10,47.1666667,-121.4166667,"WHITE, GREEN, CEDAR, SKYKOMISH, SNOQUALMI, BAKER, SKAGIT",1068,21B31S,Sawmill Ridge,4640,14.65,14.0,103.0,19.4,21.1,97.5
1990-02-10,48.5166667,-120.73333329999998,"WHITE, GREEN, CEDAR, SKYKOMISH, SNOQUALMI, BAKER, SKAGIT",711,20A09S,Rainy Pass,4890,32.5,27.0,120.0,36.3,33.5,108.0
1990-02-10,47.3666667,-121.45,"WHITE, GREEN, CEDAR, SKYKOMISH, SNOQUALMI, BAKER, SKAGIT",672,21B55S,Olallie Meadows,4030,39.4,36.2,109.0,94.1,71.9,131.0
1990-02-10,47.2833333,-121.6666667,"WHITE, GREEN, CEDAR, SKYKOMISH, SNOQUALMI, BAKER, SKAGIT",420,21B42S,Cougar Mountain,3200,21.2,12.6,168.0,68.5,53.8,127.0
1990-02-10,44.6166667,-122.23333329999998,WILLAMETTE,584,22E09S,Little Meadows,4020,24.3,17.4,140.0,69.3,66.4,104.0
1990-02-10,47.3333333,-121.46666670000002,"WHITE, GREEN, CEDAR, SKYKOMISH, SNOQUALMI, BAKER, SKAGIT",899,21B20S,Tinkham Creek,2990,14.65,21.4,103.0,19.4,61.1,97.5
1990-02-10,47.2833333,-121.46666670000002,"WHITE, GREEN, CEDAR, SKYKOMISH, SNOQUALMI, BAKER, SKAGIT",897,21B59S,Meadows Pass,3230,14.65,17.9,103.0,19.4,56.1,97.5
1990-02-10,47.0166667,-121.46666670000002,"WHITE, GREEN, CEDAR, SKYKOMISH, SNOQUALMI, BAKER, SKAGIT",418,21B13S,Corral Pass,5800,30.0,24.5,122.0,39.5,33.2,119.0
1990-02-10,46.1,-121.76666670000002,"LEWIS, COWLITZ",804,21C13S,Surprise Lakes,4290,37.8,35.4,107.0,61.2,57.7,106.0
1990-02-10,46.35,-121.0833333,"LEWIS, COWLITZ",599,21C39S,Lost Horse,5120,14.65,14.7,103.0,19.4,20.6,97.5
1990-02-10,46.2666667,-122.1833333,"LEWIS, COWLITZ",777,22C12S,Spirit Lake,3520,18.0,3.2,562.0,59.0,52.1,113.0
1990-02-10,46.1833333,-121.9333333,"LEWIS, COWLITZ",776,21C20S,Spencer Meadow,3400,32.6,24.1,135.0,68.8,59.5,116.0
1990-02-10,47.35,-121.5666667,"WHITE, GREEN, CEDAR, SKYKOMISH, SNOQUALMI, BAKER, SKAGIT",898,21B21S,Mount Gardner,2920,14.65,13.5,103.0,19.4,58.4,97.5
1990-02-10,46.15,-114.5,CLEARWATER AND SALMON,836,14C12S,Twin Lakes,6400,33.1,26.0,127.0,38.6,31.9,121.0
1990-02-10,45.25,-121.73333329999998,WILLAMETTE,655,21D35S,Mud Ridge,4070,24.9,20.6,121.0,39.9,39.9,100.0
1990-02-10,44.4166667,-121.85,WILLAMETTE,526,21E06S,Hogg Pass,4790,23.0,14.9,154.0,43.2,45.5,95.0
1990-02-10,45.0666667,-116.45,CLEARWATER AND SALMON,855,16D08S,West Branch,5560,15.2,15.2,100.0,18.9,21.6,88.0
1990-02-10,45.1833333,-119.25,"UMATILLA, WALLA WALLA, WILLOW",304,19D02S,Arbuckle Mtn,5770,7.2,13.3,54.0,11.6,17.5,66.0
1990-02-10,45.3666667,-118.46666670000002,"UMATILLA, WALLA WALLA, WILLOW",362,18D20S,Bowman Springs,4530,3.2,6.7,48.0,8.4,12.5,67.0
1990-02-10,45.55,-118.45,"UMATILLA, WALLA WALLA, WILLOW",470,18D04S,Emigrant Springs,3800,4.1,5.3,77.0,12.9,16.7,77.0
1990-02-10,45.7,-118.1,"UMATILLA, WALLA WALLA, WILLOW",523,18D19S,High Ridge,4920,11.4,17.1,67.0,20.9,26.7,78.0
1990-02-10,46.1166667,-117.85,"UMATILLA, WALLA WALLA, WILLOW",824,17C05S,Touchet,5530,22.8,22.4,102.0,31.2,31.7,98.0
1990-02-10,45.1833333,-119.25,"DESCHUTES, CROOKED, JOHN DAY",304,19D02S,Arbuckle Mtn,5770,7.2,13.3,54.0,11.6,17.5,66.0
1990-02-10,44.25,-118.51666670000002,"DESCHUTES, CROOKED, JOHN DAY",357,18E16S,Blue Mountain Spring,5870,12.1,11.9,102.0,15.8,17.9,88.0
1990-02-10,43.5833333,-122.0666667,"DESCHUTES, CROOKED, JOHN DAY",388,22F03S,Cascade Summit,5100,19.0,20.9,91.0,28.4,37.8,75.0
1990-02-10,43.2333333,-121.8,"DESCHUTES, CROOKED, JOHN DAY",395,21F22S,Chemult Alternate,4850,3.9,8.1,48.0,11.9,15.7,76.0
1990-02-10,44.45,-119.9333333,"DESCHUTES, CROOKED, JOHN DAY",440,19E03S,Derr.,5850,6.8,10.7,64.0,9.7,14.8,66.0
1990-02-10,44.4166667,-121.85,"DESCHUTES, CROOKED, JOHN DAY",526,21E06S,Hogg Pass,4790,23.0,14.9,154.0,43.2,45.5,95.0
1990-02-10,43.8,-121.95,"DESCHUTES, CROOKED, JOHN DAY",545,21F21S,Irish Taylor,5540,11.4,24.4,47.0,34.2,38.6,89.0
1990-02-10,45.2666667,-118.85,"DESCHUTES, CROOKED, JOHN DAY",605,18D06S,Lucky Strike,4970,5.9,6.3,94.0,8.1,12.9,63.0
1990-02-10,43.5166667,-121.98333329999998,"DESCHUTES, CROOKED, JOHN DAY",660,21F10S,New Crescent Lake,4910,9.3,10.7,87.0,17.0,23.1,74.0
1990-02-10,44.4333333,-120.3333333,"DESCHUTES, CROOKED, JOHN DAY",671,20E02S,Ochoco Meadows,5430,4.3,7.6,57.0,9.5,14.6,65.0
1990-02-10,44.2666667,-119.01666670000002,"DESCHUTES, CROOKED, JOHN DAY",789,19E07S,Starr Ridge,5250,4.8,5.4,89.0,6.2,10.0,62.0
1990-02-10,44.21666670000001,-121.8666667,WILLAMETTE,619,21E07S,Mckenzie,4770,33.2,30.3,110.0,50.1,54.5,92.0
1990-02-10,43.6666667,-122.5666667,WILLAMETTE,529,22F42S,Holland Meadows,4930,18.5,15.5,119.0,38.8,42.0,92.0
1990-02-10,43.9,-122.03333329999998,WILLAMETTE,719,22F43S,Roaring River,4950,16.7,19.8,84.0,33.8,39.6,85.0
1990-02-10,43.5833333,-122.0666667,WILLAMETTE,388,22F03S,Cascade Summit,5100,19.0,20.9,91.0,28.4,37.8,75.0
1990-02-10,43.8,-121.95,WILLAMETTE,545,21F21S,Irish Taylor,5540,11.4,24.4,47.0,34.2,38.6,89.0
1990-02-10,43.45,-122.1333333,WILLAMETTE,801,22F14S,Summit Lake,5610,20.9,25.3,83.0,33.5,40.5,83.0
1990-02-10,43.6166667,-122.1166667,WILLAMETTE,729,22F04S,Salt Creek Falls,4220,13.3,14.1,94.0,33.2,41.2,81.0
1990-02-10,45.46666670000001,-121.7,"LOWER COLUMBIA, HOOD RIVER",712,21D04S,Red Hill,4410,44.4,35.3,126.0,72.1,64.9,111.0
1990-02-10,45.6166667,-121.7,"LOWER COLUMBIA, HOOD RIVER",504,21D01S,Greenpoint,3310,17.2,15.0,115.0,46.7,44.4,105.0
1990-02-10,45.1833333,-121.6833333,"LOWER COLUMBIA, HOOD RIVER",401,21D12S,Clear Lake,3810,15.9,10.6,150.0,24.9,26.5,94.0
1990-02-10,45.4333333,-121.85,"LOWER COLUMBIA, HOOD RIVER",351,21D33S,Blazed Alder,3650,31.6,20.9,151.0,70.2,68.9,102.0
1990-02-10,45.1,-119.5,"LOWER COLUMBIA, HOOD RIVER",608,19D03S,Madison Butte,5150,2.2,4.0,55.0,5.8,8.9,65.0
1990-02-10,44.65,-118.4333333,"DESCHUTES, CROOKED, JOHN DAY",821,18E09S,Tipton,5150,6.5,9.3,70.0,9.3,12.9,72.0
1990-02-10,44.15,-121.6333333,"DESCHUTES, CROOKED, JOHN DAY",815,21E13S,Three Creeks Meadow,5690,8.1,13.4,60.0,20.9,25.5,82.0
1990-02-10,45.55,-122.0,"LOWER COLUMBIA, HOOD RIVER",666,22D02S,North Fork,3060,25.8,12.7,203.0,86.4,83.8,103.0
1990-02-10,42.0166667,-115.0,"RAFT, GOOSE, SALMON FALLS, BRUNEAU",871,15G02S,Wilson Creek,7120,14.65,9.9,103.0,19.4,11.6,97.5
1990-02-10,46.95,-116.3333333,CLEARWATER AND SALMON,752,16C01S,Sherwin,3200,10.6,8.3,128.0,23.1,21.0,110.0
1990-02-10,41.8666667,-115.25,"RAFT, GOOSE, SALMON FALLS, BRUNEAU",698,15H14S,Pole Creek R.S.,8360,13.1,13.2,99.0,6.6,8.0,82.0
1990-02-10,46.25,-113.76666670000002,UPPER CLARK FORK RIVER BASIN,760,13C03S,Skalkaho Summit,7250,18.0,14.7,122.0,18.2,15.8,115.0
1990-02-10,47.0,-113.9333333,UPPER CLARK FORK RIVER BASIN,901,13C01S,Stuart Mountain,7400,14.65,21.9,103.0,19.4,22.8,97.5
1990-02-10,46.2666667,-113.1666667,UPPER CLARK FORK RIVER BASIN,850,13C43S,Warm Springs,7800,14.8,13.1,113.0,17.8,15.2,117.0
1990-02-10,46.1833333,-113.85,BITTERROOT,433,13C39S,Daly Creek,5780,8.8,7.0,126.0,11.4,9.7,118.0
1990-02-10,46.6333333,-114.5833333,BITTERROOT,588,14C05S,Lolo Pass,5240,24.1,19.3,125.0,32.6,24.5,133.0
1990-02-10,45.6666667,-113.95,BITTERROOT,638,13D16S,Moose Creek,6200,10.2,11.9,86.0,13.0,14.5,90.0
1990-02-10,45.7333333,-114.48333329999998,BITTERROOT,662,14D02S,Nez Perce Camp,5650,10.2,9.2,111.0,15.7,14.4,109.0
1990-02-10,45.7,-113.96666670000002,BITTERROOT,727,13D22S,Saddle Mtn.,7940,17.9,16.6,108.0,17.0,16.3,104.0
1990-02-10,46.25,-113.76666670000002,BITTERROOT,760,13C03S,Skalkaho Summit,7250,18.0,14.7,122.0,18.2,15.8,115.0
1990-02-10,46.15,-114.45,BITTERROOT,835,14C13S,Twelvemile Creek,5600,14.9,11.9,125.0,25.7,22.9,112.0
1990-02-10,46.15,-114.5,BITTERROOT,836,14C12S,Twin Lakes,6400,33.1,26.0,127.0,38.6,31.9,121.0
1990-02-10,46.9833333,-115.03333329999998,LOWER CLARK FORK RIVER BASIN,530,15C10S,Hoodoo Basin,6050,34.2,27.3,125.0,43.6,33.4,131.0
1990-02-10,47.5333333,-115.78333329999998,LOWER CLARK FORK RIVER BASIN,535,15B21S,Humboldt Gulch,4250,11.4,8.9,128.0,37.0,26.6,139.0
1990-02-10,46.6333333,-114.5833333,LOWER CLARK FORK RIVER BASIN,588,14C05S,Lolo Pass,5240,24.1,19.3,125.0,32.6,24.5,133.0
1990-02-10,47.45,-115.7,LOWER CLARK FORK RIVER BASIN,594,15B02S,Lookout,5190,28.0,20.0,140.0,40.3,28.9,139.0
1990-02-10,48.1333333,-115.6166667,LOWER CLARK FORK RIVER BASIN,932,15A12S,Poorman Creek,5100,14.65,23.7,103.0,19.4,39.8,97.5
1990-02-10,47.1833333,-114.3333333,LOWER CLARK FORK RIVER BASIN,783,14B05S,Sleeping Woman,6150,14.65,10.1,103.0,19.4,14.7,97.5
1990-02-10,48.6833333,-117.1833333,COLUMBIA ABOVE METHOW,376,17A01S,Bunchgrass Mdw,5000,22.3,19.0,117.0,29.9,25.2,119.0
1990-02-10,47.55,-115.8166667,IDAHO PANHANDLE REGION,803,15B09S,Sunset,5540,26.3,17.3,152.0,39.0,26.3,148.0
1990-02-10,46.95,-116.3333333,IDAHO PANHANDLE REGION,752,16C01S,Sherwin,3200,10.6,8.3,128.0,23.1,21.0,110.0
1990-02-10,48.3666667,-116.6333333,IDAHO PANHANDLE REGION,738,16A10S,Schweitzer Basin,6090,42.0,32.8,128.0,40.2,29.3,137.0
1990-02-10,47.8833333,-117.0833333,IDAHO PANHANDLE REGION,707,17B04S,Quartz Peak,4700,18.6,15.6,119.0,29.5,24.3,121.0
1990-02-10,48.05,-116.23333329999998,IDAHO PANHANDLE REGION,645,16A04S,Mosquito Ridge,5260,33.1,26.0,127.0,47.4,32.3,147.0
1990-02-10,46.35,-112.26666670000002,UPPER CLARK FORK RIVER BASIN,722,12C11S,Rocker Peak,8000,11.2,8.7,129.0,11.8,9.1,130.0
1990-02-10,47.15,-116.26666670000002,IDAHO PANHANDLE REGION,623,16B14S,Mica Creek,4510,14.65,17.6,103.0,19.4,30.6,97.5
1990-02-10,47.45,-115.7,IDAHO PANHANDLE REGION,594,15B02S,Lookout,5190,28.0,20.0,140.0,40.3,28.9,139.0
1990-02-10,47.5333333,-115.78333329999998,IDAHO PANHANDLE REGION,535,15B21S,Humboldt Gulch,4250,11.4,8.9,128.0,37.0,26.6,139.0
1990-02-10,48.6833333,-117.1833333,IDAHO PANHANDLE REGION,376,17A01S,Bunchgrass Mdw,5000,22.3,19.0,117.0,29.9,25.2,119.0
1990-02-10,48.3,-116.0666667,IDAHO PANHANDLE REGION,323,16A08S,Bear Mountain,5400,50.8,38.6,132.0,69.3,49.5,140.0
1990-02-10,47.55,-115.8166667,LOWER CLARK FORK RIVER BASIN,803,15B09S,Sunset,5540,26.3,17.3,152.0,39.0,26.3,148.0
1990-02-10,47.0,-113.9333333,LOWER CLARK FORK RIVER BASIN,901,13C01S,Stuart Mountain,7400,14.65,21.9,103.0,19.4,22.8,97.5
1990-02-10,47.0833333,-115.96666670000002,IDAHO PANHANDLE REGION,600,15B14S,Lost Lake,6110,45.1,39.9,113.0,51.9,41.9,124.0
1990-02-10,46.1333333,-113.3,UPPER CLARK FORK RIVER BASIN,930,13C36S,Peterson Meadows,7200,5.5,5.8,95.0,19.4,7.5,97.5
1990-02-10,47.2666667,-113.75,UPPER CLARK FORK RIVER BASIN,667,13B07S,North Fork Jocko,6330,32.4,28.8,112.0,44.4,35.5,125.0
1990-02-10,46.8666667,-113.28333329999998,UPPER CLARK FORK RIVER BASIN,657,13C31S,N Fk Elk Creek,6250,8.4,7.3,115.0,11.0,9.6,115.0
1990-02-10,48.9166667,-114.76666670000002,FLATHEAD RIVER BASIN,500,14A11S,Grave Creek,4300,11.9,11.4,104.0,32.8,22.8,144.0
1990-02-10,48.8,-113.85,FLATHEAD RIVER BASIN,482,13A19S,Flattop Mtn.,6300,43.1,29.7,145.0,48.7,33.8,144.0
1990-02-10,48.4333333,-113.9333333,FLATHEAD RIVER BASIN,469,13A24S,Emery Creek,4350,12.5,10.4,120.0,26.6,17.1,156.0
1990-02-10,47.9833333,-114.35,FLATHEAD RIVER BASIN,1144,14B04S,Blacktail Mtn,5650,14.65,14.0,103.0,19.4,21.1,97.5
1990-02-10,47.6833333,-114.0,FLATHEAD RIVER BASIN,346,13B25S,Bisson Creek,4920,14.65,6.8,103.0,19.4,11.5,97.5
1990-02-10,48.1333333,-113.01666670000002,FLATHEAD RIVER BASIN,307,13A15S,Badger Pass,6900,33.8,20.3,167.0,34.8,23.2,150.0
1990-02-10,48.3,-114.8333333,FLATHEAD RIVER BASIN,510,14A14S,Hand Creek,5035,9.8,7.8,126.0,18.6,11.7,159.0
1990-02-10,48.2,-114.51666670000002,FLATHEAD RIVER BASIN,1165,14A19S,Ashley Divide,4820,14.65,14.0,103.0,19.4,21.1,97.5
1990-02-10,48.1333333,-115.6166667,KOOTENAI RIVER IN MONTANA,932,15A12S,Poorman Creek,5100,14.65,23.7,103.0,19.4,39.8,97.5
1990-02-10,48.96666670000001,-115.95,KOOTENAI RIVER IN MONTANA,516,15A03S,Hawkins Lake,6450,21.6,16.8,129.0,26.7,20.9,128.0
1990-02-10,48.3,-114.8333333,KOOTENAI RIVER IN MONTANA,510,14A14S,Hand Creek,5035,9.8,7.8,126.0,18.6,11.7,159.0
1990-02-10,48.9166667,-114.76666670000002,KOOTENAI RIVER IN MONTANA,500,14A11S,Grave Creek,4300,11.9,11.4,104.0,32.8,22.8,144.0
1990-02-10,48.9833333,-115.8166667,KOOTENAI RIVER IN MONTANA,918,15A05S,Garver Creek,4250,8.1,6.9,117.0,19.4,12.9,97.5
1990-02-10,41.7333333,-115.46666670000002,"RAFT, GOOSE, SALMON FALLS, BRUNEAU",746,15H03S,Seventysix Creek,7350,7.1,8.0,89.0,8.8,10.2,86.0
1990-02-10,48.9166667,-114.8666667,KOOTENAI RIVER IN MONTANA,787,14A12S,Stahl Peak,6030,31.9,23.2,138.0,37.5,26.6,141.0
1990-02-10,48.71666670000001,-120.6666667,COLUMBIA ABOVE METHOW,515,20A05S,Harts Pass,6490,40.1,29.6,135.0,29.2,21.1,97.5
1990-02-10,47.4333333,-113.78333329999998,FLATHEAD RIVER BASIN,562,13B22S,Kraft Creek,4750,11.4,14.0,103.0,27.8,18.7,149.0
1990-02-10,47.6833333,-113.96666670000002,FLATHEAD RIVER BASIN,646,13B24S,Moss Peak,6780,33.4,23.6,142.0,35.0,25.4,138.0
1990-02-10,46.85,-112.5,UPPER CLARK FORK RIVER BASIN,903,12C22S,Nevada Ridge,7020,14.65,9.4,103.0,19.4,11.5,97.5
1990-02-10,46.8833333,-113.3166667,UPPER CLARK FORK RIVER BASIN,604,13C38S,Lubrecht Flume,4680,4.2,4.1,102.0,8.4,7.4,114.0
1990-02-10,47.0833333,-112.73333329999998,UPPER CLARK FORK RIVER BASIN,414,12B14S,Copper Camp,6950,25.4,14.0,103.0,30.0,23.0,130.0
1990-02-10,47.05,-112.6,UPPER CLARK FORK RIVER BASIN,413,12B16S,Copper Bottom,5200,9.2,14.0,103.0,14.4,11.7,123.0
1990-02-10,46.46666670000001,-113.4,UPPER CLARK FORK RIVER BASIN,410,13C33S,Combination,5600,3.2,3.4,94.0,6.7,6.5,103.0
1990-02-10,46.4166667,-113.4333333,UPPER CLARK FORK RIVER BASIN,349,13C13S,Black Pine,7210,8.4,6.7,125.0,9.9,9.1,109.0
1990-02-10,48.8,-113.6666667,FLATHEAD RIVER BASIN,613,13A27S,Many Glacier,4900,14.4,10.1,143.0,32.3,22.3,145.0
1990-02-10,45.8,-112.51666670000002,UPPER CLARK FORK RIVER BASIN,315,12D09S,Basin Creek,7180,5.2,4.8,108.0,6.4,6.0,107.0
1990-02-10,47.0,-113.9333333,FLATHEAD RIVER BASIN,901,13C01S,Stuart Mountain,7400,14.65,21.9,103.0,19.4,22.8,97.5
1990-02-10,48.9166667,-114.8666667,FLATHEAD RIVER BASIN,787,14A12S,Stahl Peak,6030,31.9,23.2,138.0,37.5,26.6,141.0
1990-02-10,47.1833333,-114.3333333,FLATHEAD RIVER BASIN,783,14B05S,Sleeping Woman,6150,14.65,10.1,103.0,19.4,14.7,97.5
1990-02-10,48.3,-113.3333333,FLATHEAD RIVER BASIN,693,13A26S,Pike Creek,5930,27.1,14.0,103.0,32.4,21.2,153.0
1990-02-10,47.2666667,-113.75,FLATHEAD RIVER BASIN,667,13B07S,North Fork Jocko,6330,32.4,28.8,112.0,44.4,35.5,125.0
1990-02-10,48.15,-113.95,FLATHEAD RIVER BASIN,664,13A25S,Noisy Basin,6040,30.5,26.8,114.0,38.5,30.3,127.0
1990-02-10,46.1,-113.1333333,UPPER CLARK FORK RIVER BASIN,313,13C44S,Barker Lakes,8250,8.8,8.6,102.0,11.9,10.5,113.0
1990-02-10,48.3666667,-119.0833333,COLUMBIA ABOVE METHOW,644,19A13S,Moses Mtn,5010,14.65,10.6,103.0,19.4,13.1,97.5
1990-02-10,48.3,-116.0666667,KOOTENAI RIVER IN MONTANA,323,16A08S,Bear Mountain,5400,50.8,38.6,132.0,69.3,49.5,140.0
1990-02-10,43.8833333,-114.6666667,BIG AND LITTLE WOOD BASINS,489,14F17S,Galena,7470,9.3,11.7,79.0,11.5,13.3,86.0
1990-02-10,44.21666670000001,-110.6666667,"HENRYS FORK, TETON, WILLOW, BLACKFOOT, PORTNEUF",577,10E09S,Lewis Lake Divide,7850,23.7,21.8,109.0,27.0,24.8,109.0
1990-02-10,44.5833333,-111.1166667,"HENRYS FORK, TETON, WILLOW, BLACKFOOT, PORTNEUF",609,11E31S,Madison Plateau,7750,17.2,15.1,114.0,17.8,18.4,97.0
1990-02-10,43.5166667,-110.9166667,"HENRYS FORK, TETON, WILLOW, BLACKFOOT, PORTNEUF",689,10F23S,Phillips Bench,8200,17.6,16.9,104.0,19.4,19.5,99.0
1990-02-10,43.5666667,-111.21666670000002,"HENRYS FORK, TETON, WILLOW, BLACKFOOT, PORTNEUF",695,11F02S,Pine Creek Pass,6720,8.7,10.2,85.0,12.1,15.3,79.0
1990-02-10,42.5166667,-111.95,"HENRYS FORK, TETON, WILLOW, BLACKFOOT, PORTNEUF",741,11G30S,Sedgwick Peak,7850,9.5,13.6,70.0,10.9,14.5,75.0
1990-02-10,42.5666667,-111.3,"HENRYS FORK, TETON, WILLOW, BLACKFOOT, PORTNEUF",761,11G05S,Slug Creek Divide,7225,8.5,9.6,89.0,11.9,14.4,83.0
1990-02-10,42.95,-111.3666667,"HENRYS FORK, TETON, WILLOW, BLACKFOOT, PORTNEUF",770,11G01S,Somsen Ranch,6800,7.9,9.4,84.0,9.9,11.8,84.0
1990-02-10,44.6166667,-111.15,"HENRYS FORK, TETON, WILLOW, BLACKFOOT, PORTNEUF",858,11E30S,Whiskey Creek,6800,10.2,10.0,102.0,12.2,14.1,87.0
1990-02-10,44.5333333,-111.4166667,"HENRYS FORK, TETON, WILLOW, BLACKFOOT, PORTNEUF",860,11E36S,White Elephant,7710,16.6,17.4,95.0,19.3,20.3,95.0
1990-02-10,42.75,-112.48333329999998,"HENRYS FORK, TETON, WILLOW, BLACKFOOT, PORTNEUF",867,12G17S,Wildhorse Divide,6490,8.3,9.8,85.0,9.4,13.4,70.0
1990-02-10,43.2666667,-115.35,BIG AND LITTLE WOOD BASINS,382,15F09S,Camas Creek Divide,5710,14.65,9.7,103.0,19.4,12.9,97.5
1990-02-10,43.7666667,-114.4166667,BIG AND LITTLE WOOD BASINS,895,14F19S,Chocolate Gulch,6310,14.65,9.0,103.0,19.4,11.7,97.5
1990-02-10,43.6,-114.6666667,BIG AND LITTLE WOOD BASINS,450,14F08S,Dollarhide Summit,8420,11.5,14.0,103.0,14.8,18.1,82.0
1990-02-10,48.65,-119.8333333,COLUMBIA ABOVE METHOW,728,19A02S,Salmon Meadows,4460,6.4,6.9,93.0,8.8,10.1,87.0
1990-02-10,43.8666667,-114.71666670000002,BIG AND LITTLE WOOD BASINS,490,14F12S,Galena Summit,8780,9.7,12.6,77.0,11.9,14.0,85.0
1990-02-10,43.6166667,-113.9333333,BIG AND LITTLE WOOD BASINS,492,13F04S,Garfield R.S.,6560,5.1,7.1,72.0,7.1,9.0,79.0
1990-02-10,43.71666670000001,-114.1666667,BIG AND LITTLE WOOD BASINS,537,14F16S,Hyndman,7620,5.7,8.3,69.0,8.8,11.1,79.0
1990-02-10,42.1833333,-114.28333329999998,"RAFT, GOOSE, SALMON FALLS, BRUNEAU",610,14G02S,Magic Mountain,6880,10.3,13.5,76.0,10.9,15.6,70.0
1990-02-10,42.3166667,-113.6166667,"RAFT, GOOSE, SALMON FALLS, BRUNEAU",534,13G01S,Howell Canyon,7980,9.5,15.4,62.0,11.9,18.5,64.0
1990-02-10,42.1666667,-114.2,"RAFT, GOOSE, SALMON FALLS, BRUNEAU",359,14G01S,Bostetter R.S.,7500,8.4,10.8,78.0,8.2,12.2,67.0
1990-02-10,41.7666667,-115.7,"RAFT, GOOSE, SALMON FALLS, BRUNEAU",336,15H04S,Big Bend,6898,5.3,6.8,78.0,6.3,7.6,83.0
1990-02-10,41.8333333,-115.45,"RAFT, GOOSE, SALMON FALLS, BRUNEAU",321,15H01S,Bear Creek,8040,11.7,13.1,89.0,12.0,15.0,80.0
1990-02-10,43.8666667,-114.21666670000002,BIG AND LITTLE LOST BASINS,792,14F02S,Stickney Mill,7430,4.0,5.4,74.0,6.9,7.2,96.0
1990-02-10,44.4166667,-111.3833333,"HENRYS FORK, TETON, WILLOW, BLACKFOOT, PORTNEUF",546,11E10S,Island Park,6290,9.7,10.5,92.0,11.7,13.2,89.0
1990-02-10,44.4166667,-113.4,BIG AND LITTLE LOST BASINS,636,13E06S,Moonshine,7440,6.7,6.4,105.0,8.9,8.8,101.0
1990-02-10,43.8166667,-114.26666670000002,BIG AND LITTLE LOST BASINS,601,14F03S,Lost-Wood Divide,7900,10.8,13.4,81.0,12.1,14.7,82.0
1990-02-10,44.0166667,-113.46666670000002,BIG AND LITTLE LOST BASINS,524,13E27S,Hilts Creek,8000,6.2,8.4,74.0,7.3,9.0,81.0
1990-02-10,43.75,-113.9333333,BIG AND LITTLE LOST BASINS,320,13F03S,Bear Canyon,7900,7.2,9.2,78.0,7.8,11.2,70.0
1990-02-10,43.8,-114.85,BIG AND LITTLE WOOD BASINS,845,14F04S,Vienna Mine,8960,18.0,20.7,87.0,18.6,21.2,88.0
1990-02-10,43.6333333,-113.96666670000002,BIG AND LITTLE WOOD BASINS,805,13F09S,Swede Peak,7640,7.3,10.1,72.0,8.5,11.7,73.0
1990-02-10,43.8166667,-114.26666670000002,BIG AND LITTLE WOOD BASINS,601,14F03S,Lost-Wood Divide,7900,10.8,13.4,81.0,12.1,14.7,82.0
1990-02-10,44.4333333,-113.3166667,BIG AND LITTLE LOST BASINS,620,13E18S,Meadow Lake,9150,10.7,10.0,107.0,13.8,11.6,119.0
1990-02-10,44.1333333,-110.8333333,"HENRYS FORK, TETON, WILLOW, BLACKFOOT, PORTNEUF",499,10E15S,Grassy Lake,7265,23.8,22.2,107.0,27.9,25.6,109.0
1990-02-10,43.21666670000001,-111.6833333,"HENRYS FORK, TETON, WILLOW, BLACKFOOT, PORTNEUF",749,11F11S,Sheep Mtn.,6650,8.6,9.8,88.0,9.8,11.6,84.0
1990-02-10,44.5,-111.1333333,"HENRYS FORK, TETON, WILLOW, BLACKFOOT, PORTNEUF",347,11E35S,Black Bear,8170,26.4,25.6,103.0,27.4,26.5,103.0
1990-02-10,46.9,-121.48333329999998,"YAKIMA, AHTANUM",642,21C17S,Morse Lake,5410,35.3,38.5,92.0,52.8,48.9,108.0
1990-02-10,46.35,-121.0833333,"YAKIMA, AHTANUM",599,21C39S,Lost Horse,5120,14.65,14.7,103.0,19.4,20.6,97.5
1990-02-10,47.2833333,-120.48333329999998,"YAKIMA, AHTANUM",507,20B11S,Grouse Camp,5390,15.3,14.0,103.0,18.3,19.1,96.0
1990-02-10,46.55,-121.1666667,"YAKIMA, AHTANUM",502,21C10S,Green Lake,5920,14.0,16.0,88.0,21.7,21.5,101.0
1990-02-10,44.4333333,-112.0,"HENRYS FORK, TETON, WILLOW, BLACKFOOT, PORTNEUF",424,11E37S,Crab Creek,6900,6.1,8.5,72.0,7.9,11.1,71.0
1990-02-10,46.8166667,-121.3333333,"YAKIMA, AHTANUM",375,21C38S,Bumping Ridge,4610,18.5,18.7,99.0,38.8,37.6,103.0
1990-02-10,47.3833333,-121.0666667,"YAKIMA, AHTANUM",734,21B51S,Sasse Ridge,4340,28.7,24.1,119.0,39.1,37.4,105.0
1990-02-10,47.2833333,-120.3666667,"CHELAN, ENTIAT, WENATCHEE",841,20B07S,Upper Wheeler,4330,6.8,9.7,70.0,14.5,15.2,95.0
1990-02-10,47.75,-121.1,"CHELAN, ENTIAT, WENATCHEE",791,21B01S,Stevens Pass,3950,44.4,29.6,150.0,67.2,55.1,122.0
1990-02-10,47.9833333,-120.5666667,"CHELAN, ENTIAT, WENATCHEE",699,20B24S,Pope Ridge,3590,14.5,14.5,100.0,22.2,22.3,100.0
1990-02-10,48.45,-120.9166667,"CHELAN, ENTIAT, WENATCHEE",681,20A12S,Park Creek Ridge,4600,41.8,33.0,127.0,51.3,43.4,118.0
1990-02-10,42.0166667,-115.0,"CHELAN, ENTIAT, WENATCHEE",871,15G02S,Wilson Creek,7120,14.65,9.9,103.0,19.4,11.6,97.5
1990-02-10,48.2,-120.9166667,"CHELAN, ENTIAT, WENATCHEE",606,20A23S,Lyman Lake,5980,54.6,43.0,127.0,47.7,46.7,102.0
1990-02-10,47.35,-120.6833333,"CHELAN, ENTIAT, WENATCHEE",352,20B02S,Blewett Pass,4240,17.1,12.9,133.0,25.4,22.1,115.0
1990-02-10,47.2333333,-120.3,"CHELAN, ENTIAT, WENATCHEE",832,20B25S,Trough,5480,3.4,8.1,42.0,13.3,15.2,88.0
1990-02-10,46.6333333,-121.3833333,"YAKIMA, AHTANUM",863,21C28S,White Pass E.S.,4440,22.8,16.9,135.0,27.7,27.2,102.0
1990-02-10,47.5333333,-121.0833333,"YAKIMA, AHTANUM",478,21B04S,Fish Lake,3430,36.7,23.3,158.0,48.9,41.0,119.0
1990-02-10,42.96666670000001,-110.6166667,SNAKE ABOVE PALISADES,353,10G02S,Blind Bull Sum,8650,14.4,15.1,95.0,10.0,13.7,73.0
1990-02-10,43.9333333,-110.45,SNAKE ABOVE PALISADES,314,10F02S,Base Camp,7060,12.6,11.5,110.0,14.9,14.9,100.0
1990-02-10,44.15,-110.21666670000002,SNAKE ABOVE PALISADES,837,10E17S,Two Ocean Plateau,9240,21.0,18.9,111.0,22.5,18.5,122.0
1990-02-10,43.75,-110.05,SNAKE ABOVE PALISADES,822,10F09S,Togwotee Pass,9580,17.8,15.7,113.0,19.1,16.9,113.0
1990-02-10,42.5333333,-110.6666667,SNAKE ABOVE PALISADES,779,10G20S,Spring Creek Divide,9000,15.4,15.7,98.0,14.4,16.5,87.0
1990-02-10,42.5,-110.9166667,SNAKE ABOVE PALISADES,730,10G08S,Salt River Summit,7640,8.7,8.5,102.0,10.0,11.4,88.0
1990-02-10,43.5166667,-110.9166667,SNAKE ABOVE PALISADES,689,10F23S,Phillips Bench,8200,17.6,16.9,104.0,19.4,19.5,99.0
1990-02-10,42.8166667,-110.8333333,SNAKE ABOVE PALISADES,868,10G23S,Willow Creek,8080,17.3,18.2,95.0,19.0,23.0,83.0
1990-02-10,44.21666670000001,-110.6666667,SNAKE ABOVE PALISADES,577,10E09S,Lewis Lake Divide,7850,23.7,21.8,109.0,27.0,24.8,109.0
1990-02-10,43.3833333,-110.1333333,SNAKE ABOVE PALISADES,506,10F19S,Gros Ventre Summit,8750,8.9,8.7,102.0,8.7,8.7,100.0
1990-02-10,44.1333333,-110.8333333,SNAKE ABOVE PALISADES,499,10E15S,Grassy Lake,7265,23.8,22.2,107.0,27.9,25.6,109.0
1990-02-10,43.35,-110.4333333,SNAKE ABOVE PALISADES,497,10F29S,Granite Creek,6770,11.8,11.6,102.0,14.1,14.5,97.0
1990-02-10,43.1333333,-110.2,SNAKE ABOVE PALISADES,460,10F17S,East Rim Divide,7930,8.3,7.0,119.0,7.6,8.2,93.0
1990-02-10,42.65,-110.8166667,SNAKE ABOVE PALISADES,419,10G25S,Cottonwood Creek,7670,12.7,13.8,92.0,14.0,16.9,83.0
1990-02-10,43.1666667,-110.1333333,SNAKE ABOVE PALISADES,597,10F16S,Loomis Park,8240,11.4,10.2,112.0,11.7,12.0,98.0
1991-02-10,46.8333333,-116.1166667,CLEARWATER AND SALMON,466,16C20S,Elk Butte,5690,29.3,25.6,114.0,38.6,32.9,117.0
1991-02-10,44.55,-115.5666667,CLEARWATER AND SALMON,439,15E04S,Deadwood Summit,6860,16.8,26.2,64.0,20.6,31.0,66.0
1991-02-10,45.1666667,-113.5833333,CLEARWATER AND SALMON,436,13D19S,Darkhorse Lake,8945,17.3,18.6,93.0,16.5,19.1,86.0
1991-02-10,46.5666667,-115.28333329999998,CLEARWATER AND SALMON,425,15C09S,Crater Meadows,5960,35.6,31.0,115.0,39.1,35.2,111.0
1991-02-10,46.7666667,-115.3,CLEARWATER AND SALMON,411,15C16S,Cool Creek,6280,37.6,31.6,119.0,45.3,39.8,114.0
1991-02-10,45.05,-116.1333333,CLEARWATER AND SALMON,370,16D09S,Brundage Reservoir,6250,11.1,18.8,59.0,18.1,25.8,70.0
1991-02-10,44.3,-115.23333329999998,CLEARWATER AND SALMON,312,15E11S,Banner Summit,7040,10.4,16.8,62.0,12.4,21.0,59.0
1991-02-10,44.95,-116.15,CLEARWATER AND SALMON,319,16E11S,Bear Basin,5350,5.2,11.5,45.0,10.0,17.2,58.0
1991-02-10,44.46666670000001,-112.98333329999998,CLEARWATER AND SALMON,318,12E08S,Beagle Springs,8850,3.9,5.5,71.0,5.2,6.8,76.0
1991-02-10,45.0666667,-118.15,"GRAND RONDE, POWDER, BURNT, IMNAHA",873,18D21S,Wolf Creek,5630,7.0,12.6,56.0,10.0,14.5,69.0
1991-02-10,45.0833333,-117.55,"GRAND RONDE, POWDER, BURNT, IMNAHA",812,17D07S,Taylor Green,5740,12.0,15.2,79.0,16.4,19.2,85.0
1991-02-10,45.0,-117.1666667,"GRAND RONDE, POWDER, BURNT, IMNAHA",736,17D08S,Schneider Meadows,5400,15.4,22.0,70.0,17.2,26.7,64.0
1991-02-10,43.8833333,-114.6666667,CLEARWATER AND SALMON,489,14F17S,Galena,7470,5.1,11.7,44.0,6.6,13.3,50.0
1991-02-10,44.6333333,-115.8,CLEARWATER AND SALMON,338,15E02S,Big Creek Summit,6560,13.9,22.5,62.0,16.1,24.9,65.0
1991-02-10,43.8666667,-114.71666670000002,CLEARWATER AND SALMON,490,14F12S,Galena Summit,8780,6.1,12.6,48.0,7.9,14.0,56.0
1991-02-10,43.75,-115.23333329999998,"WEISER, PAYETTE, BOISE",306,15F04S,Atlanta Summit,7580,10.5,20.0,52.0,12.1,22.8,53.0
1991-02-10,46.9833333,-115.03333329999998,CLEARWATER AND SALMON,530,15C10S,Hoodoo Basin,6050,37.8,27.3,138.0,39.4,33.4,118.0
1991-02-10,46.5666667,-115.75,CLEARWATER AND SALMON,747,15C04S,Shanghi Summit,4600,19.5,18.2,107.0,32.7,28.7,114.0
1991-02-10,45.1833333,-115.96666670000002,CLEARWATER AND SALMON,740,15D01S,Secesh Summit,6540,14.6,20.7,71.0,18.7,23.0,81.0
1991-02-10,46.46666670000001,-114.6333333,CLEARWATER AND SALMON,735,14C04S,Savage Pass,6190,20.2,17.5,115.0,24.7,21.5,115.0
1991-02-10,45.7,-113.96666670000002,CLEARWATER AND SALMON,727,13D22S,Saddle Mtn.,7940,15.5,16.6,93.0,15.6,16.3,96.0
1991-02-10,45.7333333,-114.48333329999998,CLEARWATER AND SALMON,662,14D02S,Nez Perce Camp,5650,9.3,9.2,101.0,15.6,14.4,108.0
1991-02-10,45.7,-115.23333329999998,CLEARWATER AND SALMON,650,15D06S,Mountain Meadows,6320,15.2,14.4,106.0,20.0,17.9,112.0
1991-02-10,46.4833333,-115.6333333,CLEARWATER AND SALMON,520,15C06S,Hemlock Butte,5810,35.8,31.2,115.0,41.4,35.7,116.0
1991-02-10,44.85,-114.26666670000002,CLEARWATER AND SALMON,639,14E04S,Morgan Creek,7600,5.0,7.3,68.0,7.7,10.7,72.0
1991-02-10,44.4166667,-113.4,CLEARWATER AND SALMON,636,13E06S,Moonshine,7440,4.7,6.4,73.0,5.3,8.8,60.0
1991-02-10,44.46666670000001,-114.48333329999998,CLEARWATER AND SALMON,627,14E01S,Mill Creek Summit,8800,9.9,12.5,79.0,9.3,13.1,71.0
1991-02-10,44.4333333,-113.3166667,CLEARWATER AND SALMON,620,13E18S,Meadow Lake,9150,7.3,10.0,73.0,8.2,11.6,71.0
1991-02-10,47.0833333,-115.96666670000002,CLEARWATER AND SALMON,600,15B14S,Lost Lake,6110,58.1,39.9,146.0,56.6,41.9,135.0
1991-02-10,46.6333333,-114.5833333,CLEARWATER AND SALMON,588,14C05S,Lolo Pass,5240,21.4,19.3,111.0,28.9,24.5,118.0
1991-02-10,45.0,-113.45,CLEARWATER AND SALMON,576,13E23S,Lemhi Ridge,8100,6.1,6.8,90.0,8.4,8.6,98.0
1991-02-10,45.6666667,-113.95,CLEARWATER AND SALMON,638,13D16S,Moose Creek,6200,10.8,11.9,91.0,12.9,14.5,89.0
1991-02-10,45.2666667,-117.1666667,"GRAND RONDE, POWDER, BURNT, IMNAHA",653,17D18S,Mt. Howard,7910,9.5,10.3,92.0,13.4,18.9,71.0
1991-02-10,44.3,-115.23333329999998,"WEISER, PAYETTE, BOISE",312,15E11S,Banner Summit,7040,10.4,16.8,62.0,12.4,21.0,59.0
1991-02-10,44.7666667,-118.3166667,"GRAND RONDE, POWDER, BURNT, IMNAHA",494,18E08S,Gold Center,5410,4.4,7.6,58.0,7.3,12.6,58.0
1991-02-10,44.7666667,-116.25,"WEISER, PAYETTE, BOISE",782,16E05S,Squaw Flat,6240,5.9,14.0,42.0,11.3,21.2,53.0
1991-02-10,45.1833333,-115.96666670000002,"WEISER, PAYETTE, BOISE",740,15D01S,Secesh Summit,6540,14.6,20.7,71.0,18.7,23.0,81.0
1991-02-10,43.5,-115.5666667,"WEISER, PAYETTE, BOISE",704,15F06S,Prairie,4800,4.0,4.5,89.0,6.0,10.7,56.0
1991-02-10,43.9333333,-115.6666667,"WEISER, PAYETTE, BOISE",637,15F01S,Mores Creek Summit,6100,13.0,21.1,62.0,15.9,25.3,63.0
1991-02-10,44.05,-115.45,"WEISER, PAYETTE, BOISE",550,15E09S,Jackson Peak,7070,10.4,18.9,55.0,13.3,23.0,58.0
1991-02-10,43.95,-115.26666670000002,"WEISER, PAYETTE, BOISE",496,15F14S,Graham Guard Sta.,5690,7.7,10.1,76.0,10.6,16.1,66.0
1991-02-10,43.6333333,-115.4333333,"WEISER, PAYETTE, BOISE",830,15F05S,Trinity Mtn.,7770,13.1,25.7,51.0,15.4,27.7,56.0
1991-02-10,43.6,-114.6666667,"WEISER, PAYETTE, BOISE",450,14F08S,Dollarhide Summit,8420,7.1,14.0,76.0,8.9,18.1,49.0
1991-02-10,44.2833333,-115.65,"WEISER, PAYETTE, BOISE",423,15E08S,Cozy Cove,5400,5.6,10.5,53.0,8.1,17.6,46.0
1991-02-10,45.05,-116.1333333,"WEISER, PAYETTE, BOISE",370,16D09S,Brundage Reservoir,6250,11.1,18.8,59.0,18.1,25.8,70.0
1991-02-10,44.6333333,-115.8,"WEISER, PAYETTE, BOISE",338,15E02S,Big Creek Summit,6560,13.9,22.5,62.0,16.1,24.9,65.0
1991-02-10,44.6,-116.98333329999998,"WEISER, PAYETTE, BOISE",324,16E10S,Bear Saddle,6180,8.6,17.3,50.0,11.0,17.8,62.0
1991-02-10,44.95,-116.15,"WEISER, PAYETTE, BOISE",319,16E11S,Bear Basin,5350,5.2,11.5,45.0,10.0,17.2,58.0
1991-02-10,46.95,-116.3333333,CLEARWATER AND SALMON,752,16C01S,Sherwin,3200,7.0,8.3,84.0,25.0,21.0,119.0
1991-02-10,44.55,-115.5666667,"WEISER, PAYETTE, BOISE",439,15E04S,Deadwood Summit,6860,16.8,26.2,64.0,20.6,31.0,66.0
1991-02-10,45.2666667,-117.6833333,"GRAND RONDE, POWDER, BURNT, IMNAHA",647,17D06S,Moss Springs,5760,15.9,17.1,93.0,24.9,24.0,104.0
1991-02-10,43.8,-114.85,"WEISER, PAYETTE, BOISE",845,14F04S,Vienna Mine,8960,12.5,20.7,60.0,13.4,21.2,63.0
1991-02-10,41.7666667,-115.7,OWYHEE MALHEUR,336,15H04S,Big Bend,6898,3.3,6.8,49.0,4.4,7.6,58.0
1991-02-10,44.8666667,-118.1166667,"GRAND RONDE, POWDER, BURNT, IMNAHA",464,18E03S,Eilertson Meadows,5510,1.9,8.5,22.0,9.4,14.5,65.0
1991-02-10,45.1833333,-118.55,"GRAND RONDE, POWDER, BURNT, IMNAHA",422,18D08S,County Line,4830,1.6,4.2,38.0,9.5,10.1,94.0
1991-02-10,44.8333333,-118.1833333,"GRAND RONDE, POWDER, BURNT, IMNAHA",361,18E05S,Bourne,5850,7.5,12.0,62.0,11.4,17.1,67.0
1991-02-10,45.15,-118.21666670000002,"GRAND RONDE, POWDER, BURNT, IMNAHA",331,18D09S,Beaver Reservoir,5150,4.3,7.1,61.0,11.9,13.9,86.0
1991-02-10,45.21666670000001,-117.2,"GRAND RONDE, POWDER, BURNT, IMNAHA",302,17D02S,Aneroid Lake #2,7400,13.0,16.0,81.0,14.4,20.9,69.0
1991-02-10,41.2333333,-116.03333329999998,OWYHEE MALHEUR,811,15H09S,Taylor Canyon,6325,1.1,4.4,25.0,3.2,6.0,53.0
1991-02-10,45.0666667,-116.45,"WEISER, PAYETTE, BOISE",855,16D08S,West Branch,5560,9.9,15.2,65.0,14.6,21.6,68.0
1991-02-10,42.7666667,-116.9,OWYHEE MALHEUR,774,16G01S,South Mtn.,6500,7.5,12.8,59.0,9.9,16.4,60.0
1991-02-10,41.7833333,-116.03333329999998,OWYHEE MALHEUR,573,16H05S,Laurel Draw,6682,5.2,8.5,61.0,7.1,12.5,57.0
1991-02-10,44.21666670000001,-118.6333333,OWYHEE MALHEUR,563,18E18S,Lake Creek R.S.,5240,2.1,10.1,21.0,10.1,13.8,73.0
1991-02-10,41.5166667,-116.01666670000002,OWYHEE MALHEUR,549,16H04S,Jacks Peak,8424,10.4,14.0,76.0,9.3,17.3,54.0
1991-02-10,41.55,-116.0,OWYHEE MALHEUR,548,16H02S,Jack Creek Upper,7377,7.5,10.7,70.0,8.1,13.5,60.0
1991-02-10,41.8166667,-116.1,OWYHEE MALHEUR,476,16H08S,Fawn Creek,7031,7.9,10.9,72.0,9.6,15.0,64.0
1991-02-10,44.25,-118.51666670000002,OWYHEE MALHEUR,357,18E16S,Blue Mountain Spring,5870,9.3,11.9,78.0,14.6,17.9,82.0
1991-02-10,42.6,-116.5666667,OWYHEE MALHEUR,654,16G07S,Mud Flat,5730,3.8,5.6,68.0,4.3,8.0,54.0
1991-02-10,44.7666667,-116.25,CLEARWATER AND SALMON,782,16E05S,Squaw Flat,6240,5.9,14.0,42.0,11.3,21.2,53.0
1991-02-10,44.21666670000001,-121.8666667,WILLAMETTE,619,21E07S,Mckenzie,4770,18.9,30.3,62.0,49.5,54.5,91.0
1991-02-10,46.15,-114.5,CLEARWATER AND SALMON,836,14C12S,Twin Lakes,6400,30.9,26.0,119.0,35.3,31.9,111.0
1991-02-10,45.1833333,-121.6833333,WILLAMETTE,401,21D12S,Clear Lake,3810,4.9,10.6,46.0,21.5,26.5,81.0
1991-02-10,44.4333333,-121.95,WILLAMETTE,733,21E05S,Santiam Jct.,3740,7.8,13.6,57.0,34.4,43.2,80.0
1991-02-10,44.5166667,-122.0833333,WILLAMETTE,434,22E08S,Daly Lake,3690,2.5,10.7,23.0,49.6,48.9,101.0
1991-02-10,44.3833333,-122.1666667,WILLAMETTE,552,22E07S,Jump Off Joe,3520,3.3,9.3,35.0,38.0,47.7,80.0
1991-02-10,45.0333333,-121.9333333,WILLAMETTE,687,21D14S,Peavine Ridge,3420,3.7,10.8,34.0,31.3,37.8,83.0
1991-02-10,45.1,-121.75,WILLAMETTE,398,21D13S,Clackamas Lake,3400,3.3,10.4,32.0,26.4,32.6,81.0
1991-02-10,45.55,-123.3666667,WILLAMETTE,726,23D01S,Saddle Mountain,3110,0.0,14.0,76.0,58.8,60.5,97.0
1991-02-10,43.6666667,-122.21666670000002,WILLAMETTE,710,22F05S,Railroad Overpass,2680,0.0,0.0,76.0,21.5,29.8,72.0
1991-02-10,44.6,-121.96666670000002,WILLAMETTE,614,21E04S,Marion Forks,2590,3.6,6.7,54.0,40.5,48.4,84.0
1991-02-10,45.5333333,-123.3,WILLAMETTE,743,23D02S,Seine Creek,2060,0.0,0.0,76.0,37.0,44.7,83.0
1991-02-10,45.25,-123.28333329999998,WILLAMETTE,1084,23D03S,Miller Woods,420,10.4,14.0,76.0,16.5,21.1,83.0
1991-02-10,46.15,-122.15,"LEWIS, COWLITZ",553,22C09S,June Lake,3440,17.6,29.4,60.0,108.8,99.4,109.0
1991-02-10,46.2666667,-121.96666670000002,"LEWIS, COWLITZ",591,21C26S,Lone Pine,3930,12.5,25.0,50.0,55.7,57.6,97.0
1991-02-10,46.7833333,-121.75,"LEWIS, COWLITZ",679,21C35S,Paradise,5130,51.5,47.6,108.0,84.1,67.2,125.0
1991-02-10,46.6166667,-121.3833333,"LEWIS, COWLITZ",692,21C33S,Pigtail Peak,5800,45.1,36.4,124.0,56.9,46.4,123.0
1991-02-10,46.35,-121.51666670000002,"LEWIS, COWLITZ",702,21C14S,Potato Hill,4510,11.1,18.7,59.0,35.1,38.3,92.0
1991-02-10,46.2,-122.25,"LEWIS, COWLITZ",748,22C10S,Sheep Canyon,3990,22.8,23.1,99.0,74.1,71.9,103.0
1991-02-10,48.5333333,-120.98333329999998,"WHITE, GREEN, CEDAR, SKYKOMISH, SNOQUALMI, BAKER, SKAGIT",817,20A07S,Thunder Basin,4320,34.2,23.9,143.0,72.2,43.5,166.0
1991-02-10,47.2666667,-121.3333333,"WHITE, GREEN, CEDAR, SKYKOMISH, SNOQUALMI, BAKER, SKAGIT",788,21B10S,Stampede Pass,3850,26.0,29.5,88.0,78.1,53.0,147.0
1991-02-10,47.1666667,-121.4166667,"WHITE, GREEN, CEDAR, SKYKOMISH, SNOQUALMI, BAKER, SKAGIT",1068,21B31S,Sawmill Ridge,4640,10.4,14.0,76.0,16.5,21.1,83.0
1991-02-10,48.5166667,-120.73333329999998,"WHITE, GREEN, CEDAR, SKYKOMISH, SNOQUALMI, BAKER, SKAGIT",711,20A09S,Rainy Pass,4890,46.8,27.0,173.0,55.8,33.5,167.0
1991-02-10,47.3666667,-121.45,"WHITE, GREEN, CEDAR, SKYKOMISH, SNOQUALMI, BAKER, SKAGIT",672,21B55S,Olallie Meadows,4030,33.6,36.2,93.0,110.9,71.9,154.0
1991-02-10,47.2833333,-121.6666667,"WHITE, GREEN, CEDAR, SKYKOMISH, SNOQUALMI, BAKER, SKAGIT",420,21B42S,Cougar Mountain,3200,11.8,12.6,94.0,82.3,53.8,153.0
1991-02-10,44.6166667,-122.23333329999998,WILLAMETTE,584,22E09S,Little Meadows,4020,6.1,17.4,35.0,62.4,66.4,94.0
1991-02-10,47.3333333,-121.46666670000002,"WHITE, GREEN, CEDAR, SKYKOMISH, SNOQUALMI, BAKER, SKAGIT",899,21B20S,Tinkham Creek,2990,10.4,21.4,76.0,16.5,61.1,83.0
1991-02-10,47.2833333,-121.46666670000002,"WHITE, GREEN, CEDAR, SKYKOMISH, SNOQUALMI, BAKER, SKAGIT",897,21B59S,Meadows Pass,3230,10.4,17.9,76.0,16.5,56.1,83.0
1991-02-10,47.0166667,-121.46666670000002,"WHITE, GREEN, CEDAR, SKYKOMISH, SNOQUALMI, BAKER, SKAGIT",418,21B13S,Corral Pass,5800,23.2,24.5,95.0,39.4,33.2,119.0
1991-02-10,46.1,-121.76666670000002,"LEWIS, COWLITZ",804,21C13S,Surprise Lakes,4290,24.2,35.4,68.0,60.0,57.7,104.0
1991-02-10,46.35,-121.0833333,"LEWIS, COWLITZ",599,21C39S,Lost Horse,5120,9.5,14.7,65.0,16.3,20.6,79.0
1991-02-10,46.2666667,-122.1833333,"LEWIS, COWLITZ",777,22C12S,Spirit Lake,3520,0.0,3.2,0.0,58.2,52.1,112.0
1991-02-10,46.1833333,-121.9333333,"LEWIS, COWLITZ",776,21C20S,Spencer Meadow,3400,11.3,24.1,47.0,62.9,59.5,106.0
1991-02-10,47.35,-121.5666667,"WHITE, GREEN, CEDAR, SKYKOMISH, SNOQUALMI, BAKER, SKAGIT",898,21B21S,Mount Gardner,2920,10.4,13.5,76.0,16.5,58.4,83.0
1991-02-10,46.15,-114.45,CLEARWATER AND SALMON,835,14C13S,Twelvemile Creek,5600,11.8,11.9,99.0,23.2,22.9,101.0
1991-02-10,45.25,-121.73333329999998,WILLAMETTE,655,21D35S,Mud Ridge,4070,12.2,20.6,59.0,39.0,39.9,98.0
1991-02-10,44.4166667,-121.85,WILLAMETTE,526,21E06S,Hogg Pass,4790,14.8,14.9,99.0,41.6,45.5,91.0
1991-02-10,43.8,-114.85,CLEARWATER AND SALMON,845,14F04S,Vienna Mine,8960,12.5,20.7,60.0,13.4,21.2,63.0
1991-02-10,45.0666667,-116.45,CLEARWATER AND SALMON,855,16D08S,West Branch,5560,9.9,15.2,65.0,14.6,21.6,68.0
1991-02-10,45.1833333,-119.25,"UMATILLA, WALLA WALLA, WILLOW",304,19D02S,Arbuckle Mtn,5770,8.1,13.3,61.0,12.0,17.5,69.0
1991-02-10,45.3666667,-118.46666670000002,"UMATILLA, WALLA WALLA, WILLOW",362,18D20S,Bowman Springs,4530,3.4,6.7,51.0,11.9,12.5,95.0
1991-02-10,45.55,-118.45,"UMATILLA, WALLA WALLA, WILLOW",470,18D04S,Emigrant Springs,3800,2.2,5.3,42.0,14.9,16.7,89.0
1991-02-10,45.7,-118.1,"UMATILLA, WALLA WALLA, WILLOW",523,18D19S,High Ridge,4920,10.1,17.1,59.0,21.9,26.7,82.0
1991-02-10,46.1166667,-117.85,"UMATILLA, WALLA WALLA, WILLOW",824,17C05S,Touchet,5530,15.0,22.4,67.0,27.8,31.7,88.0
1991-02-10,45.1833333,-119.25,"DESCHUTES, CROOKED, JOHN DAY",304,19D02S,Arbuckle Mtn,5770,8.1,13.3,61.0,12.0,17.5,69.0
1991-02-10,44.25,-118.51666670000002,"DESCHUTES, CROOKED, JOHN DAY",357,18E16S,Blue Mountain Spring,5870,9.3,11.9,78.0,14.6,17.9,82.0
1991-02-10,43.5833333,-122.0666667,"DESCHUTES, CROOKED, JOHN DAY",388,22F03S,Cascade Summit,5100,12.8,20.9,61.0,29.3,37.8,78.0
1991-02-10,43.2333333,-121.8,"DESCHUTES, CROOKED, JOHN DAY",395,21F22S,Chemult Alternate,4850,1.0,8.1,12.0,7.4,15.7,47.0
1991-02-10,44.45,-119.9333333,"DESCHUTES, CROOKED, JOHN DAY",440,19E03S,Derr.,5850,5.0,10.7,47.0,9.3,14.8,63.0
1991-02-10,44.4166667,-121.85,"DESCHUTES, CROOKED, JOHN DAY",526,21E06S,Hogg Pass,4790,14.8,14.9,99.0,41.6,45.5,91.0
1991-02-10,43.8,-121.95,"DESCHUTES, CROOKED, JOHN DAY",545,21F21S,Irish Taylor,5540,13.5,24.4,55.0,31.0,38.6,80.0
1991-02-10,45.2666667,-118.85,"DESCHUTES, CROOKED, JOHN DAY",605,18D06S,Lucky Strike,4970,3.8,6.3,60.0,10.2,12.9,79.0
1991-02-10,43.5166667,-121.98333329999998,"DESCHUTES, CROOKED, JOHN DAY",660,21F10S,New Crescent Lake,4910,1.9,10.7,18.0,12.8,23.1,55.0
1991-02-10,44.4333333,-120.3333333,"DESCHUTES, CROOKED, JOHN DAY",671,20E02S,Ochoco Meadows,5430,2.3,7.6,30.0,7.0,14.6,48.0
1991-02-10,43.6666667,-122.5666667,WILLAMETTE,529,22F42S,Holland Meadows,4930,8.3,15.5,54.0,39.2,42.0,93.0
1991-02-10,43.9,-122.03333329999998,WILLAMETTE,719,22F43S,Roaring River,4950,11.4,19.8,58.0,33.2,39.6,84.0
1991-02-10,43.5833333,-122.0666667,WILLAMETTE,388,22F03S,Cascade Summit,5100,12.8,20.9,61.0,29.3,37.8,78.0
1991-02-10,43.8,-121.95,WILLAMETTE,545,21F21S,Irish Taylor,5540,13.5,24.4,55.0,31.0,38.6,80.0
1991-02-10,43.45,-122.1333333,WILLAMETTE,801,22F14S,Summit Lake,5610,13.5,25.3,53.0,30.5,40.5,75.0
1991-02-10,45.46666670000001,-121.7,"LOWER COLUMBIA, HOOD RIVER",712,21D04S,Red Hill,4410,23.9,35.3,68.0,62.8,64.9,97.0
1991-02-10,43.6166667,-122.1166667,WILLAMETTE,729,22F04S,Salt Creek Falls,4220,7.7,14.1,55.0,33.0,41.2,80.0
1991-02-10,45.55,-122.0,"LOWER COLUMBIA, HOOD RIVER",666,22D02S,North Fork,3060,5.3,12.7,42.0,96.0,83.8,115.0
1991-02-10,45.1833333,-121.6833333,"LOWER COLUMBIA, HOOD RIVER",401,21D12S,Clear Lake,3810,4.9,10.6,46.0,21.5,26.5,81.0
1991-02-10,45.4333333,-121.85,"LOWER COLUMBIA, HOOD RIVER",351,21D33S,Blazed Alder,3650,20.7,20.9,99.0,73.9,68.9,107.0
1991-02-10,45.1,-119.5,"LOWER COLUMBIA, HOOD RIVER",608,19D03S,Madison Butte,5150,2.1,4.0,52.0,6.7,8.9,75.0
1991-02-10,44.65,-118.4333333,"DESCHUTES, CROOKED, JOHN DAY",821,18E09S,Tipton,5150,4.9,9.3,53.0,8.2,12.9,64.0
1991-02-10,44.15,-121.6333333,"DESCHUTES, CROOKED, JOHN DAY",815,21E13S,Three Creeks Meadow,5690,5.2,13.4,39.0,13.5,25.5,53.0
1991-02-10,44.2666667,-119.01666670000002,"DESCHUTES, CROOKED, JOHN DAY",789,19E07S,Starr Ridge,5250,2.6,5.4,48.0,7.2,10.0,72.0
1991-02-10,45.6166667,-121.7,"LOWER COLUMBIA, HOOD RIVER",504,21D01S,Greenpoint,3310,6.4,15.0,43.0,39.6,44.4,89.0
1991-02-10,42.0166667,-115.0,"RAFT, GOOSE, SALMON FALLS, BRUNEAU",871,15G02S,Wilson Creek,7120,7.5,9.9,76.0,9.1,11.6,78.0
1991-02-10,48.3666667,-119.0833333,COLUMBIA ABOVE METHOW,644,19A13S,Moses Mtn,5010,10.4,10.6,76.0,16.5,13.1,83.0
1991-02-10,41.8666667,-115.25,"RAFT, GOOSE, SALMON FALLS, BRUNEAU",698,15H14S,Pole Creek R.S.,8360,11.9,13.2,90.0,4.2,8.0,52.0
1991-02-10,46.35,-112.26666670000002,UPPER CLARK FORK RIVER BASIN,722,12C11S,Rocker Peak,8000,7.3,8.7,84.0,8.6,9.1,95.0
1991-02-10,46.25,-113.76666670000002,UPPER CLARK FORK RIVER BASIN,760,13C03S,Skalkaho Summit,7250,16.0,14.7,109.0,16.7,15.8,106.0
1991-02-10,47.0,-113.9333333,UPPER CLARK FORK RIVER BASIN,901,13C01S,Stuart Mountain,7400,10.4,21.9,76.0,16.5,22.8,83.0
1991-02-10,46.2666667,-113.1666667,UPPER CLARK FORK RIVER BASIN,850,13C43S,Warm Springs,7800,12.7,13.1,97.0,15.7,15.2,103.0
1991-02-10,46.1833333,-113.85,BITTERROOT,433,13C39S,Daly Creek,5780,6.2,7.0,89.0,9.0,9.7,93.0
1991-02-10,46.6333333,-114.5833333,BITTERROOT,588,14C05S,Lolo Pass,5240,21.4,19.3,111.0,28.9,24.5,118.0
1991-02-10,45.6666667,-113.95,BITTERROOT,638,13D16S,Moose Creek,6200,10.8,11.9,91.0,12.9,14.5,89.0
1991-02-10,45.7333333,-114.48333329999998,BITTERROOT,662,14D02S,Nez Perce Camp,5650,9.3,9.2,101.0,15.6,14.4,108.0
1991-02-10,45.7,-113.96666670000002,BITTERROOT,727,13D22S,Saddle Mtn.,7940,15.5,16.6,93.0,15.6,16.3,96.0
1991-02-10,46.25,-113.76666670000002,BITTERROOT,760,13C03S,Skalkaho Summit,7250,16.0,14.7,109.0,16.7,15.8,106.0
1991-02-10,46.15,-114.45,BITTERROOT,835,14C13S,Twelvemile Creek,5600,11.8,11.9,99.0,23.2,22.9,101.0
1991-02-10,46.15,-114.5,BITTERROOT,836,14C12S,Twin Lakes,6400,30.9,26.0,119.0,35.3,31.9,111.0
1991-02-10,46.9833333,-115.03333329999998,LOWER CLARK FORK RIVER BASIN,530,15C10S,Hoodoo Basin,6050,37.8,27.3,138.0,39.4,33.4,118.0
1991-02-10,47.5333333,-115.78333329999998,LOWER CLARK FORK RIVER BASIN,535,15B21S,Humboldt Gulch,4250,8.3,8.9,93.0,36.5,26.6,137.0
1991-02-10,46.6333333,-114.5833333,LOWER CLARK FORK RIVER BASIN,588,14C05S,Lolo Pass,5240,21.4,19.3,111.0,28.9,24.5,118.0
1991-02-10,47.45,-115.7,LOWER CLARK FORK RIVER BASIN,594,15B02S,Lookout,5190,21.9,20.0,110.0,37.0,28.9,128.0
1991-02-10,48.1333333,-115.6166667,LOWER CLARK FORK RIVER BASIN,932,15A12S,Poorman Creek,5100,10.4,23.7,76.0,16.5,39.8,83.0
1991-02-10,47.55,-115.8166667,IDAHO PANHANDLE REGION,803,15B09S,Sunset,5540,27.2,17.3,157.0,38.4,26.3,146.0
1991-02-10,46.95,-116.3333333,IDAHO PANHANDLE REGION,752,16C01S,Sherwin,3200,7.0,8.3,84.0,25.0,21.0,119.0
1991-02-10,48.3666667,-116.6333333,IDAHO PANHANDLE REGION,738,16A10S,Schweitzer Basin,6090,34.3,32.8,105.0,31.0,29.3,106.0
1991-02-10,47.8833333,-117.0833333,IDAHO PANHANDLE REGION,707,17B04S,Quartz Peak,4700,11.9,15.6,76.0,24.8,24.3,102.0
1991-02-10,48.05,-116.23333329999998,IDAHO PANHANDLE REGION,645,16A04S,Mosquito Ridge,5260,26.4,26.0,102.0,41.4,32.3,128.0
1991-02-10,47.15,-116.26666670000002,IDAHO PANHANDLE REGION,623,16B14S,Mica Creek,4510,17.3,17.6,98.0,37.7,30.6,123.0
1991-02-10,46.1333333,-113.3,UPPER CLARK FORK RIVER BASIN,930,13C36S,Peterson Meadows,7200,4.6,5.8,79.0,16.5,7.5,83.0
1991-02-10,47.0833333,-115.96666670000002,IDAHO PANHANDLE REGION,600,15B14S,Lost Lake,6110,58.1,39.9,146.0,56.6,41.9,135.0
1991-02-10,47.5333333,-115.78333329999998,IDAHO PANHANDLE REGION,535,15B21S,Humboldt Gulch,4250,8.3,8.9,93.0,36.5,26.6,137.0
1991-02-10,48.6833333,-117.1833333,IDAHO PANHANDLE REGION,376,17A01S,Bunchgrass Mdw,5000,21.5,19.0,113.0,28.8,25.2,114.0
1991-02-10,48.3,-116.0666667,IDAHO PANHANDLE REGION,323,16A08S,Bear Mountain,5400,45.6,38.6,118.0,67.2,49.5,136.0
1991-02-10,47.55,-115.8166667,LOWER CLARK FORK RIVER BASIN,803,15B09S,Sunset,5540,27.2,17.3,157.0,38.4,26.3,146.0
1991-02-10,47.0,-113.9333333,LOWER CLARK FORK RIVER BASIN,901,13C01S,Stuart Mountain,7400,10.4,21.9,76.0,16.5,22.8,83.0
1991-02-10,47.1833333,-114.3333333,LOWER CLARK FORK RIVER BASIN,783,14B05S,Sleeping Woman,6150,10.4,10.1,76.0,16.5,14.7,83.0
1991-02-10,47.45,-115.7,IDAHO PANHANDLE REGION,594,15B02S,Lookout,5190,21.9,20.0,110.0,37.0,28.9,128.0
1991-02-10,47.2666667,-113.75,UPPER CLARK FORK RIVER BASIN,667,13B07S,North Fork Jocko,6330,41.8,28.8,145.0,45.8,35.5,129.0
1991-02-10,46.8666667,-113.28333329999998,UPPER CLARK FORK RIVER BASIN,657,13C31S,N Fk Elk Creek,6250,9.7,7.3,133.0,12.2,9.6,127.0
1991-02-10,46.85,-112.5,UPPER CLARK FORK RIVER BASIN,903,12C22S,Nevada Ridge,7020,10.4,9.4,76.0,16.5,11.5,83.0
1991-02-10,48.8,-113.85,FLATHEAD RIVER BASIN,482,13A19S,Flattop Mtn.,6300,46.0,29.7,155.0,43.8,33.8,130.0
1991-02-10,48.4333333,-113.9333333,FLATHEAD RIVER BASIN,469,13A24S,Emery Creek,4350,12.6,10.4,121.0,27.6,17.1,161.0
1991-02-10,47.9833333,-114.35,FLATHEAD RIVER BASIN,1144,14B04S,Blacktail Mtn,5650,10.4,14.0,76.0,16.5,21.1,83.0
1991-02-10,47.6833333,-114.0,FLATHEAD RIVER BASIN,346,13B25S,Bisson Creek,4920,10.4,6.8,76.0,16.5,11.5,83.0
1991-02-10,48.1333333,-113.01666670000002,FLATHEAD RIVER BASIN,307,13A15S,Badger Pass,6900,33.3,20.3,164.0,34.1,23.2,147.0
1991-02-10,48.2,-114.51666670000002,FLATHEAD RIVER BASIN,1165,14A19S,Ashley Divide,4820,10.4,14.0,76.0,16.5,21.1,83.0
1991-02-10,48.9166667,-114.76666670000002,FLATHEAD RIVER BASIN,500,14A11S,Grave Creek,4300,13.7,11.4,120.0,41.0,22.8,180.0
1991-02-10,48.9166667,-114.8666667,KOOTENAI RIVER IN MONTANA,787,14A12S,Stahl Peak,6030,43.0,23.2,185.0,43.5,26.6,164.0
1991-02-10,48.96666670000001,-115.95,KOOTENAI RIVER IN MONTANA,516,15A03S,Hawkins Lake,6450,28.4,16.8,169.0,29.6,20.9,142.0
1991-02-10,48.3,-114.8333333,KOOTENAI RIVER IN MONTANA,510,14A14S,Hand Creek,5035,12.1,7.8,155.0,17.6,11.7,150.0
1991-02-10,48.9166667,-114.76666670000002,KOOTENAI RIVER IN MONTANA,500,14A11S,Grave Creek,4300,13.7,11.4,120.0,41.0,22.8,180.0
1991-02-10,48.9833333,-115.8166667,KOOTENAI RIVER IN MONTANA,918,15A05S,Garver Creek,4250,5.6,6.9,81.0,16.5,12.9,83.0
1991-02-10,48.3,-116.0666667,KOOTENAI RIVER IN MONTANA,323,16A08S,Bear Mountain,5400,45.6,38.6,118.0,67.2,49.5,136.0
1991-02-10,41.7333333,-115.46666670000002,"RAFT, GOOSE, SALMON FALLS, BRUNEAU",746,15H03S,Seventysix Creek,7350,4.5,8.0,56.0,6.1,10.2,60.0
1991-02-10,48.1333333,-115.6166667,KOOTENAI RIVER IN MONTANA,932,15A12S,Poorman Creek,5100,10.4,23.7,76.0,16.5,39.8,83.0
1991-02-10,48.6833333,-117.1833333,COLUMBIA ABOVE METHOW,376,17A01S,Bunchgrass Mdw,5000,21.5,19.0,113.0,28.8,25.2,114.0
1991-02-10,48.3,-114.8333333,FLATHEAD RIVER BASIN,510,14A14S,Hand Creek,5035,12.1,7.8,155.0,17.6,11.7,150.0
1991-02-10,48.8,-113.6666667,FLATHEAD RIVER BASIN,613,13A27S,Many Glacier,4900,17.5,10.1,173.0,42.0,22.3,188.0
1991-02-10,46.8833333,-113.3166667,UPPER CLARK FORK RIVER BASIN,604,13C38S,Lubrecht Flume,4680,4.5,4.1,110.0,9.8,7.4,132.0
1991-02-10,47.0833333,-112.73333329999998,UPPER CLARK FORK RIVER BASIN,414,12B14S,Copper Camp,6950,28.4,14.0,76.0,32.9,23.0,143.0
1991-02-10,47.05,-112.6,UPPER CLARK FORK RIVER BASIN,413,12B16S,Copper Bottom,5200,8.9,14.0,76.0,14.6,11.7,125.0
1991-02-10,46.46666670000001,-113.4,UPPER CLARK FORK RIVER BASIN,410,13C33S,Combination,5600,2.9,3.4,85.0,6.4,6.5,98.0
1991-02-10,46.4166667,-113.4333333,UPPER CLARK FORK RIVER BASIN,349,13C13S,Black Pine,7210,7.0,6.7,104.0,8.2,9.1,90.0
1991-02-10,45.8,-112.51666670000002,UPPER CLARK FORK RIVER BASIN,315,12D09S,Basin Creek,7180,2.4,4.8,50.0,3.8,6.0,63.0
1991-02-10,47.4333333,-113.78333329999998,FLATHEAD RIVER BASIN,562,13B22S,Kraft Creek,4750,10.4,14.0,76.0,27.5,18.7,147.0
1991-02-10,46.1,-113.1333333,UPPER CLARK FORK RIVER BASIN,313,13C44S,Barker Lakes,8250,6.8,8.6,79.0,11.4,10.5,109.0
1991-02-10,48.9166667,-114.8666667,FLATHEAD RIVER BASIN,787,14A12S,Stahl Peak,6030,43.0,23.2,185.0,43.5,26.6,164.0
1991-02-10,47.1833333,-114.3333333,FLATHEAD RIVER BASIN,783,14B05S,Sleeping Woman,6150,10.4,10.1,76.0,16.5,14.7,83.0
1991-02-10,48.3,-113.3333333,FLATHEAD RIVER BASIN,693,13A26S,Pike Creek,5930,31.6,14.0,76.0,36.2,21.2,171.0
1991-02-10,47.2666667,-113.75,FLATHEAD RIVER BASIN,667,13B07S,North Fork Jocko,6330,41.8,28.8,145.0,45.8,35.5,129.0
1991-02-10,48.15,-113.95,FLATHEAD RIVER BASIN,664,13A25S,Noisy Basin,6040,40.1,26.8,150.0,41.4,30.3,137.0
1991-02-10,47.6833333,-113.96666670000002,FLATHEAD RIVER BASIN,646,13B24S,Moss Peak,6780,31.6,23.6,134.0,30.4,25.4,120.0
1991-02-10,47.0,-113.9333333,FLATHEAD RIVER BASIN,901,13C01S,Stuart Mountain,7400,10.4,21.9,76.0,16.5,22.8,83.0
1991-02-10,48.71666670000001,-120.6666667,COLUMBIA ABOVE METHOW,515,20A05S,Harts Pass,6490,57.0,29.6,193.0,51.8,21.1,83.0
1991-02-10,48.5666667,-115.45,KOOTENAI RIVER IN MONTANA,311,15A08S,Banfield Mountain,5600,17.3,12.2,142.0,21.0,17.8,118.0
1991-02-10,48.65,-119.8333333,COLUMBIA ABOVE METHOW,728,19A02S,Salmon Meadows,4460,5.1,6.9,74.0,7.4,10.1,73.0
1991-02-10,44.21666670000001,-110.6666667,"HENRYS FORK, TETON, WILLOW, BLACKFOOT, PORTNEUF",577,10E09S,Lewis Lake Divide,7850,16.7,21.8,77.0,18.8,24.8,76.0
1991-02-10,44.5833333,-111.1166667,"HENRYS FORK, TETON, WILLOW, BLACKFOOT, PORTNEUF",609,11E31S,Madison Plateau,7750,12.7,15.1,84.0,14.3,18.4,78.0
1991-02-10,43.5166667,-110.9166667,"HENRYS FORK, TETON, WILLOW, BLACKFOOT, PORTNEUF",689,10F23S,Phillips Bench,8200,14.4,16.9,85.0,15.5,19.5,79.0
1991-02-10,43.5666667,-111.21666670000002,"HENRYS FORK, TETON, WILLOW, BLACKFOOT, PORTNEUF",695,11F02S,Pine Creek Pass,6720,9.1,10.2,89.0,12.0,15.3,78.0
1991-02-10,42.5166667,-111.95,"HENRYS FORK, TETON, WILLOW, BLACKFOOT, PORTNEUF",741,11G30S,Sedgwick Peak,7850,10.6,13.6,78.0,11.6,14.5,80.0
1991-02-10,43.21666670000001,-111.6833333,"HENRYS FORK, TETON, WILLOW, BLACKFOOT, PORTNEUF",749,11F11S,Sheep Mtn.,6650,8.6,9.8,88.0,9.2,11.6,79.0
1991-02-10,42.5666667,-111.3,"HENRYS FORK, TETON, WILLOW, BLACKFOOT, PORTNEUF",761,11G05S,Slug Creek Divide,7225,7.2,9.6,75.0,11.7,14.4,81.0
1991-02-10,42.95,-111.3666667,"HENRYS FORK, TETON, WILLOW, BLACKFOOT, PORTNEUF",770,11G01S,Somsen Ranch,6800,7.7,9.4,82.0,9.5,11.8,81.0
1991-02-10,44.6166667,-111.15,"HENRYS FORK, TETON, WILLOW, BLACKFOOT, PORTNEUF",858,11E30S,Whiskey Creek,6800,8.4,10.0,84.0,10.7,14.1,76.0
1991-02-10,44.5333333,-111.4166667,"HENRYS FORK, TETON, WILLOW, BLACKFOOT, PORTNEUF",860,11E36S,White Elephant,7710,10.2,17.4,59.0,11.6,20.3,57.0
1991-02-10,42.75,-112.48333329999998,"HENRYS FORK, TETON, WILLOW, BLACKFOOT, PORTNEUF",867,12G17S,Wildhorse Divide,6490,9.4,9.8,96.0,10.3,13.4,77.0
1991-02-10,43.2666667,-115.35,BIG AND LITTLE WOOD BASINS,382,15F09S,Camas Creek Divide,5710,10.4,9.7,76.0,16.5,12.9,83.0
1991-02-10,43.7666667,-114.4166667,BIG AND LITTLE WOOD BASINS,895,14F19S,Chocolate Gulch,6310,10.4,9.0,76.0,16.5,11.7,83.0
1991-02-10,43.6,-114.6666667,BIG AND LITTLE WOOD BASINS,450,14F08S,Dollarhide Summit,8420,7.1,14.0,76.0,8.9,18.1,49.0
1991-02-10,43.8833333,-114.6666667,BIG AND LITTLE WOOD BASINS,489,14F17S,Galena,7470,5.1,11.7,44.0,6.6,13.3,50.0
1991-02-10,43.8666667,-114.71666670000002,BIG AND LITTLE WOOD BASINS,490,14F12S,Galena Summit,8780,6.1,12.6,48.0,7.9,14.0,56.0
1991-02-10,43.6166667,-113.9333333,BIG AND LITTLE WOOD BASINS,492,13F04S,Garfield R.S.,6560,2.2,7.1,31.0,3.0,9.0,33.0
1991-02-10,42.3166667,-113.6166667,"RAFT, GOOSE, SALMON FALLS, BRUNEAU",534,13G01S,Howell Canyon,7980,8.9,15.4,58.0,11.0,18.5,59.0
1991-02-10,42.1666667,-114.2,"RAFT, GOOSE, SALMON FALLS, BRUNEAU",359,14G01S,Bostetter R.S.,7500,6.5,10.8,60.0,7.2,12.2,59.0
1991-02-10,41.7666667,-115.7,"RAFT, GOOSE, SALMON FALLS, BRUNEAU",336,15H04S,Big Bend,6898,3.3,6.8,49.0,4.4,7.6,58.0
1991-02-10,41.8333333,-115.45,"RAFT, GOOSE, SALMON FALLS, BRUNEAU",321,15H01S,Bear Creek,8040,8.8,13.1,67.0,10.0,15.0,67.0
1991-02-10,43.8666667,-114.21666670000002,BIG AND LITTLE LOST BASINS,792,14F02S,Stickney Mill,7430,1.9,5.4,35.0,2.7,7.2,38.0
1991-02-10,44.4166667,-113.4,BIG AND LITTLE LOST BASINS,636,13E06S,Moonshine,7440,4.7,6.4,73.0,5.3,8.8,60.0
1991-02-10,44.4166667,-111.3833333,"HENRYS FORK, TETON, WILLOW, BLACKFOOT, PORTNEUF",546,11E10S,Island Park,6290,7.4,10.5,70.0,8.7,13.2,66.0
1991-02-10,44.4333333,-113.3166667,BIG AND LITTLE LOST BASINS,620,13E18S,Meadow Lake,9150,7.3,10.0,73.0,8.2,11.6,71.0
1991-02-10,44.0166667,-113.46666670000002,BIG AND LITTLE LOST BASINS,524,13E27S,Hilts Creek,8000,3.1,8.4,37.0,3.9,9.0,43.0
1991-02-10,43.75,-113.9333333,BIG AND LITTLE LOST BASINS,320,13F03S,Bear Canyon,7900,3.3,9.2,36.0,3.8,11.2,34.0
1991-02-10,43.8,-114.85,BIG AND LITTLE WOOD BASINS,845,14F04S,Vienna Mine,8960,12.5,20.7,60.0,13.4,21.2,63.0
1991-02-10,43.6333333,-113.96666670000002,BIG AND LITTLE WOOD BASINS,805,13F09S,Swede Peak,7640,4.0,10.1,40.0,3.8,11.7,32.0
1991-02-10,43.8166667,-114.26666670000002,BIG AND LITTLE WOOD BASINS,601,14F03S,Lost-Wood Divide,7900,5.0,13.4,37.0,5.7,14.7,39.0
1991-02-10,43.71666670000001,-114.1666667,BIG AND LITTLE WOOD BASINS,537,14F16S,Hyndman,7620,3.7,8.3,45.0,4.1,11.1,37.0
1991-02-10,43.8166667,-114.26666670000002,BIG AND LITTLE LOST BASINS,601,14F03S,Lost-Wood Divide,7900,5.0,13.4,37.0,5.7,14.7,39.0
1991-02-10,44.1333333,-110.8333333,"HENRYS FORK, TETON, WILLOW, BLACKFOOT, PORTNEUF",499,10E15S,Grassy Lake,7265,17.1,22.2,77.0,20.9,25.6,82.0
1991-02-10,42.1833333,-114.28333329999998,"RAFT, GOOSE, SALMON FALLS, BRUNEAU",610,14G02S,Magic Mountain,6880,10.3,13.5,76.0,11.4,15.6,73.0
1991-02-10,44.5,-111.1333333,"HENRYS FORK, TETON, WILLOW, BLACKFOOT, PORTNEUF",347,11E35S,Black Bear,8170,19.4,25.6,76.0,19.3,26.5,73.0
1991-02-10,44.4333333,-112.0,"HENRYS FORK, TETON, WILLOW, BLACKFOOT, PORTNEUF",424,11E37S,Crab Creek,6900,4.2,8.5,49.0,4.3,11.1,39.0
1991-02-10,47.35,-120.6833333,"CHELAN, ENTIAT, WENATCHEE",352,20B02S,Blewett Pass,4240,7.4,12.9,57.0,28.8,22.1,130.0
1991-02-10,48.2,-120.9166667,"CHELAN, ENTIAT, WENATCHEE",606,20A23S,Lyman Lake,5980,71.6,43.0,167.0,75.2,46.7,161.0
1991-02-10,42.0166667,-115.0,"CHELAN, ENTIAT, WENATCHEE",871,15G02S,Wilson Creek,7120,7.5,9.9,76.0,9.1,11.6,78.0
1991-02-10,48.45,-120.9166667,"CHELAN, ENTIAT, WENATCHEE",681,20A12S,Park Creek Ridge,4600,49.2,33.0,149.0,66.0,43.4,152.0
1991-02-10,47.9833333,-120.5666667,"CHELAN, ENTIAT, WENATCHEE",699,20B24S,Pope Ridge,3590,11.1,14.5,77.0,33.5,22.3,150.0
1991-02-10,47.75,-121.1,"CHELAN, ENTIAT, WENATCHEE",791,21B01S,Stevens Pass,3950,33.5,29.6,113.0,91.8,55.1,167.0
1991-02-10,47.2333333,-120.3,"CHELAN, ENTIAT, WENATCHEE",832,20B25S,Trough,5480,3.0,8.1,37.0,9.2,15.2,61.0
1991-02-10,47.2833333,-120.3666667,"CHELAN, ENTIAT, WENATCHEE",841,20B07S,Upper Wheeler,4330,7.0,9.7,72.0,13.0,15.2,86.0
1991-02-10,47.5333333,-121.0833333,"YAKIMA, AHTANUM",478,21B04S,Fish Lake,3430,20.4,23.3,88.0,64.0,41.0,156.0
1991-02-10,46.55,-121.1666667,"YAKIMA, AHTANUM",502,21C10S,Green Lake,5920,11.6,16.0,72.0,18.2,21.5,85.0
1991-02-10,47.2833333,-120.48333329999998,"YAKIMA, AHTANUM",507,20B11S,Grouse Camp,5390,7.3,14.0,76.0,17.4,19.1,91.0
1991-02-10,46.35,-121.0833333,"YAKIMA, AHTANUM",599,21C39S,Lost Horse,5120,9.5,14.7,65.0,16.3,20.6,79.0
1991-02-10,46.9,-121.48333329999998,"YAKIMA, AHTANUM",642,21C17S,Morse Lake,5410,32.3,38.5,84.0,51.5,48.9,105.0
1991-02-10,47.3833333,-121.0666667,"YAKIMA, AHTANUM",734,21B51S,Sasse Ridge,4340,18.2,24.1,76.0,52.2,37.4,140.0
1991-02-10,46.8166667,-121.3333333,"YAKIMA, AHTANUM",375,21C38S,Bumping Ridge,4610,14.1,18.7,75.0,46.7,37.6,124.0
1991-02-10,43.9333333,-110.45,SNAKE ABOVE PALISADES,314,10F02S,Base Camp,7060,8.2,11.5,71.0,12.3,14.9,83.0
1991-02-10,46.6333333,-121.3833333,"YAKIMA, AHTANUM",863,21C28S,White Pass E.S.,4440,12.2,16.9,72.0,28.1,27.2,103.0
1991-02-10,44.15,-110.21666670000002,SNAKE ABOVE PALISADES,837,10E17S,Two Ocean Plateau,9240,15.5,18.9,82.0,16.5,18.5,89.0
1991-02-10,43.75,-110.05,SNAKE ABOVE PALISADES,822,10F09S,Togwotee Pass,9580,15.1,15.7,96.0,16.7,16.9,99.0
1991-02-10,42.5333333,-110.6666667,SNAKE ABOVE PALISADES,779,10G20S,Spring Creek Divide,9000,12.0,15.7,76.0,12.6,16.5,76.0
1991-02-10,42.5,-110.9166667,SNAKE ABOVE PALISADES,730,10G08S,Salt River Summit,7640,6.3,8.5,74.0,8.2,11.4,72.0
1991-02-10,43.1666667,-110.1333333,SNAKE ABOVE PALISADES,597,10F16S,Loomis Park,8240,8.5,10.2,83.0,10.0,12.0,83.0
1991-02-10,44.21666670000001,-110.6666667,SNAKE ABOVE PALISADES,577,10E09S,Lewis Lake Divide,7850,16.7,21.8,77.0,18.8,24.8,76.0
1991-02-10,43.5166667,-110.9166667,SNAKE ABOVE PALISADES,689,10F23S,Phillips Bench,8200,14.4,16.9,85.0,15.5,19.5,79.0
1991-02-10,42.8166667,-110.8333333,SNAKE ABOVE PALISADES,868,10G23S,Willow Creek,8080,15.4,18.2,85.0,19.7,23.0,86.0
1991-02-10,44.1333333,-110.8333333,SNAKE ABOVE PALISADES,499,10E15S,Grassy Lake,7265,17.1,22.2,77.0,20.9,25.6,82.0
1991-02-10,43.35,-110.4333333,SNAKE ABOVE PALISADES,497,10F29S,Granite Creek,6770,7.3,11.6,63.0,10.4,14.5,72.0
1991-02-10,43.1333333,-110.2,SNAKE ABOVE PALISADES,460,10F17S,East Rim Divide,7930,7.1,7.0,101.0,7.6,8.2,93.0
1991-02-10,42.65,-110.8166667,SNAKE ABOVE PALISADES,419,10G25S,Cottonwood Creek,7670,11.0,13.8,80.0,14.0,16.9,83.0
1991-02-10,42.96666670000001,-110.6166667,SNAKE ABOVE PALISADES,353,10G02S,Blind Bull Sum,8650,12.3,15.1,81.0,10.7,13.7,78.0
1991-02-10,43.3833333,-110.1333333,SNAKE ABOVE PALISADES,506,10F19S,Gros Ventre Summit,8750,8.2,8.7,94.0,7.3,8.7,84.0
1992-02-10,46.7666667,-115.3,CLEARWATER AND SALMON,411,15C16S,Cool Creek,6280,32.1,31.6,102.0,38.5,39.8,97.0
1992-02-10,46.8333333,-116.1166667,CLEARWATER AND SALMON,466,16C20S,Elk Butte,5690,25.8,25.6,101.0,29.4,32.9,89.0
1992-02-10,44.55,-115.5666667,CLEARWATER AND SALMON,439,15E04S,Deadwood Summit,6860,23.6,26.2,90.0,25.3,31.0,82.0
1992-02-10,45.1666667,-113.5833333,CLEARWATER AND SALMON,436,13D19S,Darkhorse Lake,8945,22.4,18.6,120.0,19.3,19.1,101.0
1992-02-10,46.5666667,-115.28333329999998,CLEARWATER AND SALMON,425,15C09S,Crater Meadows,5960,28.5,31.0,92.0,32.5,35.2,92.0
1992-02-10,45.05,-116.1333333,CLEARWATER AND SALMON,370,16D09S,Brundage Reservoir,6250,14.6,18.8,78.0,19.9,25.8,77.0
1992-02-10,45.0,-117.1666667,"GRAND RONDE, POWDER, BURNT, IMNAHA",736,17D08S,Schneider Meadows,5400,19.6,22.0,89.0,19.9,26.7,75.0
1992-02-10,44.95,-116.15,CLEARWATER AND SALMON,319,16E11S,Bear Basin,5350,10.8,11.5,94.0,13.1,17.2,76.0
1992-02-10,44.46666670000001,-112.98333329999998,CLEARWATER AND SALMON,318,12E08S,Beagle Springs,8850,4.7,5.5,85.0,5.7,6.8,84.0
1992-02-10,44.3,-115.23333329999998,CLEARWATER AND SALMON,312,15E11S,Banner Summit,7040,13.3,16.8,79.0,14.9,21.0,71.0
1992-02-10,45.0666667,-118.15,"GRAND RONDE, POWDER, BURNT, IMNAHA",873,18D21S,Wolf Creek,5630,7.7,12.6,61.0,12.2,14.5,84.0
1992-02-10,45.0833333,-117.55,"GRAND RONDE, POWDER, BURNT, IMNAHA",812,17D07S,Taylor Green,5740,10.4,15.2,68.0,15.1,19.2,79.0
1992-02-10,43.8833333,-114.6666667,CLEARWATER AND SALMON,489,14F17S,Galena,7470,7.8,11.7,67.0,9.6,13.3,72.0
1992-02-10,44.6333333,-115.8,CLEARWATER AND SALMON,338,15E02S,Big Creek Summit,6560,19.6,22.5,87.0,21.1,24.9,85.0
1992-02-10,43.8666667,-114.71666670000002,CLEARWATER AND SALMON,490,14F12S,Galena Summit,8780,9.2,12.6,73.0,10.4,14.0,74.0
1992-02-10,46.5666667,-115.75,CLEARWATER AND SALMON,747,15C04S,Shanghi Summit,4600,16.9,18.2,93.0,24.0,28.7,84.0
1992-02-10,46.9833333,-115.03333329999998,CLEARWATER AND SALMON,530,15C10S,Hoodoo Basin,6050,27.2,27.3,100.0,29.5,33.4,88.0
1992-02-10,45.2666667,-117.1666667,"GRAND RONDE, POWDER, BURNT, IMNAHA",653,17D18S,Mt. Howard,7910,7.6,10.3,74.0,14.0,18.9,74.0
1992-02-10,45.1833333,-115.96666670000002,CLEARWATER AND SALMON,740,15D01S,Secesh Summit,6540,16.6,20.7,80.0,18.9,23.0,82.0
1992-02-10,46.46666670000001,-114.6333333,CLEARWATER AND SALMON,735,14C04S,Savage Pass,6190,15.8,17.5,90.0,19.2,21.5,89.0
1992-02-10,45.7,-113.96666670000002,CLEARWATER AND SALMON,727,13D22S,Saddle Mtn.,7940,16.3,16.6,98.0,15.1,16.3,93.0
1992-02-10,45.7333333,-114.48333329999998,CLEARWATER AND SALMON,662,14D02S,Nez Perce Camp,5650,7.7,9.2,84.0,13.2,14.4,92.0
1992-02-10,45.7,-115.23333329999998,CLEARWATER AND SALMON,650,15D06S,Mountain Meadows,6320,14.0,14.4,97.0,17.1,17.9,96.0
1992-02-10,46.4833333,-115.6333333,CLEARWATER AND SALMON,520,15C06S,Hemlock Butte,5810,31.3,31.2,100.0,33.6,35.7,94.0
1992-02-10,44.85,-114.26666670000002,CLEARWATER AND SALMON,639,14E04S,Morgan Creek,7600,7.0,7.3,96.0,10.1,10.7,94.0
1992-02-10,44.4166667,-113.4,CLEARWATER AND SALMON,636,13E06S,Moonshine,7440,6.1,6.4,95.0,8.0,8.8,91.0
1992-02-10,44.46666670000001,-114.48333329999998,CLEARWATER AND SALMON,627,14E01S,Mill Creek Summit,8800,10.1,12.5,81.0,9.9,13.1,76.0
1992-02-10,44.4333333,-113.3166667,CLEARWATER AND SALMON,620,13E18S,Meadow Lake,9150,7.9,10.0,79.0,10.2,11.6,88.0
1992-02-10,47.0833333,-115.96666670000002,CLEARWATER AND SALMON,600,15B14S,Lost Lake,6110,41.6,39.9,104.0,35.0,41.9,84.0
1992-02-10,46.6333333,-114.5833333,CLEARWATER AND SALMON,588,14C05S,Lolo Pass,5240,19.3,19.3,100.0,24.3,24.5,99.0
1992-02-10,45.0,-113.45,CLEARWATER AND SALMON,576,13E23S,Lemhi Ridge,8100,7.7,6.8,113.0,9.1,8.6,106.0
1992-02-10,45.6666667,-113.95,CLEARWATER AND SALMON,638,13D16S,Moose Creek,6200,12.0,11.9,101.0,13.7,14.5,94.0
1992-02-10,45.2666667,-117.6833333,"GRAND RONDE, POWDER, BURNT, IMNAHA",647,17D06S,Moss Springs,5760,14.8,17.1,87.0,20.5,24.0,85.0
1992-02-10,41.7666667,-115.7,OWYHEE MALHEUR,336,15H04S,Big Bend,6898,2.8,6.8,41.0,4.5,7.6,59.0
1992-02-10,44.8666667,-118.1166667,"GRAND RONDE, POWDER, BURNT, IMNAHA",464,18E03S,Eilertson Meadows,5510,6.7,8.5,79.0,7.9,14.5,54.0
1992-02-10,46.95,-116.3333333,CLEARWATER AND SALMON,752,16C01S,Sherwin,3200,5.8,8.3,70.0,19.2,21.0,91.0
1992-02-10,44.3,-115.23333329999998,"WEISER, PAYETTE, BOISE",312,15E11S,Banner Summit,7040,13.3,16.8,79.0,14.9,21.0,71.0
1992-02-10,44.95,-116.15,"WEISER, PAYETTE, BOISE",319,16E11S,Bear Basin,5350,10.8,11.5,94.0,13.1,17.2,76.0
1992-02-10,44.6,-116.98333329999998,"WEISER, PAYETTE, BOISE",324,16E10S,Bear Saddle,6180,10.1,17.3,58.0,11.4,17.8,64.0
1992-02-10,44.6333333,-115.8,"WEISER, PAYETTE, BOISE",338,15E02S,Big Creek Summit,6560,19.6,22.5,87.0,21.1,24.9,85.0
1992-02-10,45.05,-116.1333333,"WEISER, PAYETTE, BOISE",370,16D09S,Brundage Reservoir,6250,14.6,18.8,78.0,19.9,25.8,77.0
1992-02-10,44.2833333,-115.65,"WEISER, PAYETTE, BOISE",423,15E08S,Cozy Cove,5400,6.5,10.5,62.0,13.0,17.6,74.0
1992-02-10,44.55,-115.5666667,"WEISER, PAYETTE, BOISE",439,15E04S,Deadwood Summit,6860,23.6,26.2,90.0,25.3,31.0,82.0
1992-02-10,43.6,-114.6666667,"WEISER, PAYETTE, BOISE",450,14F08S,Dollarhide Summit,8420,11.0,14.0,77.0,12.2,18.1,67.0
1992-02-10,43.95,-115.26666670000002,"WEISER, PAYETTE, BOISE",496,15F14S,Graham Guard Sta.,5690,5.1,10.1,50.0,11.0,16.1,68.0
1992-02-10,44.05,-115.45,"WEISER, PAYETTE, BOISE",550,15E09S,Jackson Peak,7070,12.5,18.9,66.0,15.1,23.0,66.0
1992-02-10,43.9333333,-115.6666667,"WEISER, PAYETTE, BOISE",637,15F01S,Mores Creek Summit,6100,11.7,21.1,55.0,15.5,25.3,61.0
1992-02-10,43.5,-115.5666667,"WEISER, PAYETTE, BOISE",704,15F06S,Prairie,4800,0.0,4.5,0.0,5.7,10.7,53.0
1992-02-10,45.1833333,-115.96666670000002,"WEISER, PAYETTE, BOISE",740,15D01S,Secesh Summit,6540,16.6,20.7,80.0,18.9,23.0,82.0
1992-02-10,44.7666667,-116.25,"WEISER, PAYETTE, BOISE",782,16E05S,Squaw Flat,6240,10.7,14.0,76.0,14.8,21.2,70.0
1992-02-10,43.6333333,-115.4333333,"WEISER, PAYETTE, BOISE",830,15F05S,Trinity Mtn.,7770,13.4,25.7,52.0,16.3,27.7,59.0
1992-02-10,43.8,-114.85,"WEISER, PAYETTE, BOISE",845,14F04S,Vienna Mine,8960,13.5,20.7,65.0,14.4,21.2,68.0
1992-02-10,45.1833333,-118.55,"GRAND RONDE, POWDER, BURNT, IMNAHA",422,18D08S,County Line,4830,2.9,4.2,69.0,9.2,10.1,91.0
1992-02-10,44.8333333,-118.1833333,"GRAND RONDE, POWDER, BURNT, IMNAHA",361,18E05S,Bourne,5850,8.4,12.0,70.0,13.7,17.1,80.0
1992-02-10,45.15,-118.21666670000002,"GRAND RONDE, POWDER, BURNT, IMNAHA",331,18D09S,Beaver Reservoir,5150,2.9,7.1,41.0,11.5,13.9,83.0
1992-02-10,45.21666670000001,-117.2,"GRAND RONDE, POWDER, BURNT, IMNAHA",302,17D02S,Aneroid Lake #2,7400,11.9,16.0,74.0,16.6,20.9,79.0
1992-02-10,41.2333333,-116.03333329999998,OWYHEE MALHEUR,811,15H09S,Taylor Canyon,6325,2.2,4.4,50.0,4.7,6.0,78.0
1992-02-10,42.7666667,-116.9,OWYHEE MALHEUR,774,16G01S,South Mtn.,6500,6.8,12.8,53.0,13.3,16.4,81.0
1992-02-10,44.7666667,-118.3166667,"GRAND RONDE, POWDER, BURNT, IMNAHA",494,18E08S,Gold Center,5410,5.7,7.6,75.0,9.6,12.6,76.0
1992-02-10,42.6,-116.5666667,OWYHEE MALHEUR,654,16G07S,Mud Flat,5730,2.6,5.6,46.0,4.8,8.0,60.0
1992-02-10,44.21666670000001,-118.6333333,OWYHEE MALHEUR,563,18E18S,Lake Creek R.S.,5240,3.9,10.1,39.0,9.9,13.8,72.0
1992-02-10,41.5166667,-116.01666670000002,OWYHEE MALHEUR,549,16H04S,Jacks Peak,8424,10.5,14.0,77.0,10.1,17.3,58.0
1992-02-10,41.55,-116.0,OWYHEE MALHEUR,548,16H02S,Jack Creek Upper,7377,6.2,10.7,58.0,8.4,13.5,62.0
1992-02-10,41.8166667,-116.1,OWYHEE MALHEUR,476,16H08S,Fawn Creek,7031,5.5,10.9,50.0,10.2,15.0,68.0
1992-02-10,44.25,-118.51666670000002,OWYHEE MALHEUR,357,18E16S,Blue Mountain Spring,5870,8.1,11.9,68.0,13.3,17.9,74.0
1992-02-10,45.0666667,-116.45,"WEISER, PAYETTE, BOISE",855,16D08S,West Branch,5560,11.4,15.2,75.0,16.2,21.6,75.0
1992-02-10,41.7833333,-116.03333329999998,OWYHEE MALHEUR,573,16H05S,Laurel Draw,6682,3.5,8.5,41.0,6.9,12.5,55.0
1992-02-10,44.7666667,-116.25,CLEARWATER AND SALMON,782,16E05S,Squaw Flat,6240,10.7,14.0,76.0,14.8,21.2,70.0
1992-02-10,44.21666670000001,-121.8666667,WILLAMETTE,619,21E07S,Mckenzie,4770,21.4,30.3,71.0,46.9,54.5,86.0
1992-02-10,46.15,-114.5,CLEARWATER AND SALMON,836,14C12S,Twin Lakes,6400,26.2,26.0,101.0,28.8,31.9,90.0
1992-02-10,45.1833333,-121.6833333,WILLAMETTE,401,21D12S,Clear Lake,3810,1.0,10.6,9.0,19.2,26.5,72.0
1992-02-10,44.4333333,-121.95,WILLAMETTE,733,21E05S,Santiam Jct.,3740,2.8,13.6,21.0,35.0,43.2,81.0
1992-02-10,44.5166667,-122.0833333,WILLAMETTE,434,22E08S,Daly Lake,3690,0.0,10.7,0.0,38.2,48.9,78.0
1992-02-10,44.3833333,-122.1666667,WILLAMETTE,552,22E07S,Jump Off Joe,3520,0.8,9.3,9.0,41.4,47.7,87.0
1992-02-10,45.0333333,-121.9333333,WILLAMETTE,687,21D14S,Peavine Ridge,3420,2.8,10.8,26.0,32.8,37.8,87.0
1992-02-10,45.1,-121.75,WILLAMETTE,398,21D13S,Clackamas Lake,3400,1.8,10.4,17.0,25.8,32.6,79.0
1992-02-10,45.55,-123.3666667,WILLAMETTE,726,23D01S,Saddle Mountain,3110,0.0,14.0,77.0,48.9,60.5,81.0
1992-02-10,43.6666667,-122.21666670000002,WILLAMETTE,710,22F05S,Railroad Overpass,2680,0.0,0.0,77.0,29.6,29.8,99.0
1992-02-10,44.6,-121.96666670000002,WILLAMETTE,614,21E04S,Marion Forks,2590,0.2,6.7,3.0,37.4,48.4,77.0
1992-02-10,45.5333333,-123.3,WILLAMETTE,743,23D02S,Seine Creek,2060,0.0,0.0,77.0,33.2,44.7,74.0
1992-02-10,45.25,-123.28333329999998,WILLAMETTE,1084,23D03S,Miller Woods,420,10.5,14.0,77.0,15.6,21.1,81.0
1992-02-10,46.15,-122.15,"LEWIS, COWLITZ",553,22C09S,June Lake,3440,2.7,29.4,9.0,79.0,99.4,79.0
1992-02-10,46.2666667,-121.96666670000002,"LEWIS, COWLITZ",591,21C26S,Lone Pine,3930,13.3,25.0,53.0,46.2,57.6,80.0
1992-02-10,46.7833333,-121.75,"LEWIS, COWLITZ",679,21C35S,Paradise,5130,47.3,47.6,99.0,61.3,67.2,91.0
1992-02-10,46.6166667,-121.3833333,"LEWIS, COWLITZ",692,21C33S,Pigtail Peak,5800,32.1,36.4,88.0,36.1,46.4,78.0
1992-02-10,46.35,-121.51666670000002,"LEWIS, COWLITZ",702,21C14S,Potato Hill,4510,14.6,18.7,78.0,28.1,38.3,73.0
1992-02-10,46.2,-122.25,"LEWIS, COWLITZ",748,22C10S,Sheep Canyon,3990,13.4,23.1,58.0,60.4,71.9,84.0
1992-02-10,48.5333333,-120.98333329999998,"WHITE, GREEN, CEDAR, SKYKOMISH, SNOQUALMI, BAKER, SKAGIT",817,20A07S,Thunder Basin,4320,20.8,23.9,87.0,40.1,43.5,92.0
1992-02-10,47.2666667,-121.3333333,"WHITE, GREEN, CEDAR, SKYKOMISH, SNOQUALMI, BAKER, SKAGIT",788,21B10S,Stampede Pass,3850,26.7,29.5,91.0,52.0,53.0,98.0
1992-02-10,47.1666667,-121.4166667,"WHITE, GREEN, CEDAR, SKYKOMISH, SNOQUALMI, BAKER, SKAGIT",1068,21B31S,Sawmill Ridge,4640,10.5,14.0,77.0,15.6,21.1,81.0
1992-02-10,48.5166667,-120.73333329999998,"WHITE, GREEN, CEDAR, SKYKOMISH, SNOQUALMI, BAKER, SKAGIT",711,20A09S,Rainy Pass,4890,35.1,27.0,130.0,29.9,33.5,89.0
1992-02-10,47.3666667,-121.45,"WHITE, GREEN, CEDAR, SKYKOMISH, SNOQUALMI, BAKER, SKAGIT",672,21B55S,Olallie Meadows,4030,24.8,36.2,69.0,70.0,71.9,97.0
1992-02-10,47.2833333,-121.6666667,"WHITE, GREEN, CEDAR, SKYKOMISH, SNOQUALMI, BAKER, SKAGIT",420,21B42S,Cougar Mountain,3200,1.9,12.6,15.0,51.2,53.8,95.0
1992-02-10,44.6166667,-122.23333329999998,WILLAMETTE,584,22E09S,Little Meadows,4020,1.5,17.4,9.0,53.3,66.4,80.0
1992-02-10,47.3333333,-121.46666670000002,"WHITE, GREEN, CEDAR, SKYKOMISH, SNOQUALMI, BAKER, SKAGIT",899,21B20S,Tinkham Creek,2990,10.5,21.4,77.0,15.6,61.1,81.0
1992-02-10,47.2833333,-121.46666670000002,"WHITE, GREEN, CEDAR, SKYKOMISH, SNOQUALMI, BAKER, SKAGIT",897,21B59S,Meadows Pass,3230,10.5,17.9,77.0,15.6,56.1,81.0
1992-02-10,47.0166667,-121.46666670000002,"WHITE, GREEN, CEDAR, SKYKOMISH, SNOQUALMI, BAKER, SKAGIT",418,21B13S,Corral Pass,5800,24.1,24.5,98.0,30.0,33.2,90.0
1992-02-10,46.1,-121.76666670000002,"LEWIS, COWLITZ",804,21C13S,Surprise Lakes,4290,24.0,35.4,68.0,45.0,57.7,78.0
1992-02-10,46.35,-121.0833333,"LEWIS, COWLITZ",599,21C39S,Lost Horse,5120,8.8,14.7,60.0,13.8,20.6,67.0
1992-02-10,46.2666667,-122.1833333,"LEWIS, COWLITZ",777,22C12S,Spirit Lake,3520,0.1,3.2,3.0,48.1,52.1,92.0
1992-02-10,46.1833333,-121.9333333,"LEWIS, COWLITZ",776,21C20S,Spencer Meadow,3400,9.0,24.1,37.0,49.7,59.5,84.0
1992-02-10,47.35,-121.5666667,"WHITE, GREEN, CEDAR, SKYKOMISH, SNOQUALMI, BAKER, SKAGIT",898,21B21S,Mount Gardner,2920,10.5,13.5,77.0,15.6,58.4,81.0
1992-02-10,45.25,-121.73333329999998,WILLAMETTE,655,21D35S,Mud Ridge,4070,9.6,20.6,47.0,33.6,39.9,84.0
1992-02-10,43.6166667,-122.1166667,WILLAMETTE,729,22F04S,Salt Creek Falls,4220,5.6,14.1,40.0,34.2,41.2,83.0
1992-02-10,44.4166667,-121.85,WILLAMETTE,526,21E06S,Hogg Pass,4790,16.9,14.9,113.0,39.7,45.5,87.0
1992-02-10,43.8,-121.95,"DESCHUTES, CROOKED, JOHN DAY",545,21F21S,Irish Taylor,5540,10.8,24.4,44.0,32.3,38.6,84.0
1992-02-10,44.4166667,-121.85,"DESCHUTES, CROOKED, JOHN DAY",526,21E06S,Hogg Pass,4790,16.9,14.9,113.0,39.7,45.5,87.0
1992-02-10,44.45,-119.9333333,"DESCHUTES, CROOKED, JOHN DAY",440,19E03S,Derr.,5850,4.4,10.7,41.0,10.0,14.8,68.0
1992-02-10,43.2333333,-121.8,"DESCHUTES, CROOKED, JOHN DAY",395,21F22S,Chemult Alternate,4850,2.8,8.1,35.0,7.9,15.7,50.0
1992-02-10,43.5833333,-122.0666667,"DESCHUTES, CROOKED, JOHN DAY",388,22F03S,Cascade Summit,5100,16.5,20.9,79.0,32.7,37.8,87.0
1992-02-10,44.25,-118.51666670000002,"DESCHUTES, CROOKED, JOHN DAY",357,18E16S,Blue Mountain Spring,5870,8.1,11.9,68.0,13.3,17.9,74.0
1992-02-10,45.2666667,-118.85,"DESCHUTES, CROOKED, JOHN DAY",605,18D06S,Lucky Strike,4970,1.4,6.3,22.0,9.9,12.9,77.0
1992-02-10,45.1833333,-119.25,"DESCHUTES, CROOKED, JOHN DAY",304,19D02S,Arbuckle Mtn,5770,9.3,13.3,70.0,9.9,17.5,57.0
1992-02-10,45.7,-118.1,"UMATILLA, WALLA WALLA, WILLOW",523,18D19S,High Ridge,4920,15.3,17.1,89.0,23.9,26.7,90.0
1992-02-10,45.55,-118.45,"UMATILLA, WALLA WALLA, WILLOW",470,18D04S,Emigrant Springs,3800,0.1,5.3,2.0,17.7,16.7,106.0
1992-02-10,45.3666667,-118.46666670000002,"UMATILLA, WALLA WALLA, WILLOW",362,18D20S,Bowman Springs,4530,2.6,6.7,39.0,12.4,12.5,99.0
1992-02-10,45.1833333,-119.25,"UMATILLA, WALLA WALLA, WILLOW",304,19D02S,Arbuckle Mtn,5770,9.3,13.3,70.0,9.9,17.5,57.0
1992-02-10,45.0666667,-116.45,CLEARWATER AND SALMON,855,16D08S,West Branch,5560,11.4,15.2,75.0,16.2,21.6,75.0
1992-02-10,43.8,-114.85,CLEARWATER AND SALMON,845,14F04S,Vienna Mine,8960,13.5,20.7,65.0,14.4,21.2,68.0
1992-02-10,46.1166667,-117.85,"UMATILLA, WALLA WALLA, WILLOW",824,17C05S,Touchet,5530,19.1,22.4,85.0,27.9,31.7,88.0
1992-02-10,46.15,-114.45,CLEARWATER AND SALMON,835,14C13S,Twelvemile Creek,5600,9.9,11.9,83.0,20.0,22.9,87.0
1992-02-10,43.5166667,-121.98333329999998,"DESCHUTES, CROOKED, JOHN DAY",660,21F10S,New Crescent Lake,4910,4.5,10.7,42.0,16.6,23.1,72.0
1992-02-10,44.2666667,-119.01666670000002,"DESCHUTES, CROOKED, JOHN DAY",789,19E07S,Starr Ridge,5250,2.6,5.4,48.0,7.3,10.0,73.0
1992-02-10,43.75,-115.23333329999998,"WEISER, PAYETTE, BOISE",306,15F04S,Atlanta Summit,7580,12.5,20.0,62.0,14.4,22.8,63.0
1992-02-10,43.6666667,-122.5666667,WILLAMETTE,529,22F42S,Holland Meadows,4930,8.1,15.5,52.0,37.2,42.0,89.0
1992-02-10,43.9,-122.03333329999998,WILLAMETTE,719,22F43S,Roaring River,4950,10.5,19.8,53.0,32.6,39.6,82.0
1992-02-10,43.5833333,-122.0666667,WILLAMETTE,388,22F03S,Cascade Summit,5100,16.5,20.9,79.0,32.7,37.8,87.0
1992-02-10,43.8,-121.95,WILLAMETTE,545,21F21S,Irish Taylor,5540,10.8,24.4,44.0,32.3,38.6,84.0
1992-02-10,43.45,-122.1333333,WILLAMETTE,801,22F14S,Summit Lake,5610,21.2,25.3,84.0,33.2,40.5,82.0
1992-02-10,44.4333333,-120.3333333,"DESCHUTES, CROOKED, JOHN DAY",671,20E02S,Ochoco Meadows,5430,4.0,7.6,53.0,10.6,14.6,73.0
1992-02-10,45.46666670000001,-121.7,"LOWER COLUMBIA, HOOD RIVER",712,21D04S,Red Hill,4410,12.9,35.3,37.0,51.5,64.9,79.0
1992-02-10,45.6166667,-121.7,"LOWER COLUMBIA, HOOD RIVER",504,21D01S,Greenpoint,3310,2.1,15.0,14.0,35.8,44.4,81.0
1992-02-10,45.1833333,-121.6833333,"LOWER COLUMBIA, HOOD RIVER",401,21D12S,Clear Lake,3810,1.0,10.6,9.0,19.2,26.5,72.0
1992-02-10,45.4333333,-121.85,"LOWER COLUMBIA, HOOD RIVER",351,21D33S,Blazed Alder,3650,5.8,20.9,28.0,55.8,68.9,81.0
1992-02-10,45.1,-119.5,"LOWER COLUMBIA, HOOD RIVER",608,19D03S,Madison Butte,5150,1.1,4.0,28.0,7.9,8.9,89.0
1992-02-10,44.65,-118.4333333,"DESCHUTES, CROOKED, JOHN DAY",821,18E09S,Tipton,5150,6.1,9.3,66.0,9.2,12.9,71.0
1992-02-10,44.15,-121.6333333,"DESCHUTES, CROOKED, JOHN DAY",815,21E13S,Three Creeks Meadow,5690,5.2,13.4,39.0,18.2,25.5,71.0
1992-02-10,45.55,-122.0,"LOWER COLUMBIA, HOOD RIVER",666,22D02S,North Fork,3060,0.0,12.7,0.0,68.7,83.8,82.0
1992-02-10,42.0166667,-115.0,"RAFT, GOOSE, SALMON FALLS, BRUNEAU",871,15G02S,Wilson Creek,7120,6.9,9.9,70.0,10.2,11.6,88.0
1992-02-10,48.3666667,-119.0833333,COLUMBIA ABOVE METHOW,644,19A13S,Moses Mtn,5010,12.0,10.6,113.0,19.3,13.1,147.0
1992-02-10,41.8666667,-115.25,"RAFT, GOOSE, SALMON FALLS, BRUNEAU",698,15H14S,Pole Creek R.S.,8360,12.1,13.2,92.0,5.5,8.0,69.0
1992-02-10,46.35,-112.26666670000002,UPPER CLARK FORK RIVER BASIN,722,12C11S,Rocker Peak,8000,9.3,8.7,107.0,9.3,9.1,102.0
1992-02-10,46.25,-113.76666670000002,UPPER CLARK FORK RIVER BASIN,760,13C03S,Skalkaho Summit,7250,14.9,14.7,101.0,15.5,15.8,98.0
1992-02-10,47.0,-113.9333333,UPPER CLARK FORK RIVER BASIN,901,13C01S,Stuart Mountain,7400,10.5,21.9,77.0,15.6,22.8,81.0
1992-02-10,46.2666667,-113.1666667,UPPER CLARK FORK RIVER BASIN,850,13C43S,Warm Springs,7800,14.0,13.1,107.0,15.5,15.2,102.0
1992-02-10,46.1833333,-113.85,BITTERROOT,433,13C39S,Daly Creek,5780,6.6,7.0,94.0,8.9,9.7,92.0
1992-02-10,46.6333333,-114.5833333,BITTERROOT,588,14C05S,Lolo Pass,5240,19.3,19.3,100.0,24.3,24.5,99.0
1992-02-10,45.6666667,-113.95,BITTERROOT,638,13D16S,Moose Creek,6200,12.0,11.9,101.0,13.7,14.5,94.0
1992-02-10,45.7333333,-114.48333329999998,BITTERROOT,662,14D02S,Nez Perce Camp,5650,7.7,9.2,84.0,13.2,14.4,92.0
1992-02-10,45.7,-113.96666670000002,BITTERROOT,727,13D22S,Saddle Mtn.,7940,16.3,16.6,98.0,15.1,16.3,93.0
1992-02-10,46.25,-113.76666670000002,BITTERROOT,760,13C03S,Skalkaho Summit,7250,14.9,14.7,101.0,15.5,15.8,98.0
1992-02-10,46.15,-114.45,BITTERROOT,835,14C13S,Twelvemile Creek,5600,9.9,11.9,83.0,20.0,22.9,87.0
1992-02-10,46.15,-114.5,BITTERROOT,836,14C12S,Twin Lakes,6400,26.2,26.0,101.0,28.8,31.9,90.0
1992-02-10,46.9833333,-115.03333329999998,LOWER CLARK FORK RIVER BASIN,530,15C10S,Hoodoo Basin,6050,27.2,27.3,100.0,29.5,33.4,88.0
1992-02-10,47.5333333,-115.78333329999998,LOWER CLARK FORK RIVER BASIN,535,15B21S,Humboldt Gulch,4250,11.7,8.9,131.0,24.8,26.6,93.0
1992-02-10,46.6333333,-114.5833333,LOWER CLARK FORK RIVER BASIN,588,14C05S,Lolo Pass,5240,19.3,19.3,100.0,24.3,24.5,99.0
1992-02-10,47.45,-115.7,LOWER CLARK FORK RIVER BASIN,594,15B02S,Lookout,5190,22.0,20.0,110.0,26.1,28.9,90.0
1992-02-10,48.1333333,-115.6166667,LOWER CLARK FORK RIVER BASIN,932,15A12S,Poorman Creek,5100,10.5,23.7,77.0,15.6,39.8,81.0
1992-02-10,47.55,-115.8166667,IDAHO PANHANDLE REGION,803,15B09S,Sunset,5540,24.1,17.3,139.0,25.0,26.3,95.0
1992-02-10,46.95,-116.3333333,IDAHO PANHANDLE REGION,752,16C01S,Sherwin,3200,5.8,8.3,70.0,19.2,21.0,91.0
1992-02-10,48.3666667,-116.6333333,IDAHO PANHANDLE REGION,738,16A10S,Schweitzer Basin,6090,30.3,32.8,92.0,25.7,29.3,88.0
1992-02-10,47.8833333,-117.0833333,IDAHO PANHANDLE REGION,707,17B04S,Quartz Peak,4700,11.0,15.6,71.0,16.9,24.3,70.0
1992-02-10,48.05,-116.23333329999998,IDAHO PANHANDLE REGION,645,16A04S,Mosquito Ridge,5260,26.5,26.0,102.0,27.3,32.3,85.0
1992-02-10,47.15,-116.26666670000002,IDAHO PANHANDLE REGION,623,16B14S,Mica Creek,4510,18.9,17.6,107.0,29.0,30.6,95.0
1992-02-10,46.1333333,-113.3,UPPER CLARK FORK RIVER BASIN,930,13C36S,Peterson Meadows,7200,5.5,5.8,95.0,15.6,7.5,81.0
1992-02-10,47.0833333,-115.96666670000002,IDAHO PANHANDLE REGION,600,15B14S,Lost Lake,6110,41.6,39.9,104.0,35.0,41.9,84.0
1992-02-10,47.5333333,-115.78333329999998,IDAHO PANHANDLE REGION,535,15B21S,Humboldt Gulch,4250,11.7,8.9,131.0,24.8,26.6,93.0
1992-02-10,48.6833333,-117.1833333,IDAHO PANHANDLE REGION,376,17A01S,Bunchgrass Mdw,5000,19.3,19.0,102.0,20.1,25.2,80.0
1992-02-10,48.3,-116.0666667,IDAHO PANHANDLE REGION,323,16A08S,Bear Mountain,5400,36.2,38.6,94.0,38.9,49.5,79.0
1992-02-10,47.55,-115.8166667,LOWER CLARK FORK RIVER BASIN,803,15B09S,Sunset,5540,24.1,17.3,139.0,25.0,26.3,95.0
1992-02-10,47.0,-113.9333333,LOWER CLARK FORK RIVER BASIN,901,13C01S,Stuart Mountain,7400,10.5,21.9,77.0,15.6,22.8,81.0
1992-02-10,47.1833333,-114.3333333,LOWER CLARK FORK RIVER BASIN,783,14B05S,Sleeping Woman,6150,10.0,10.1,99.0,15.6,14.7,81.0
1992-02-10,47.45,-115.7,IDAHO PANHANDLE REGION,594,15B02S,Lookout,5190,22.0,20.0,110.0,26.1,28.9,90.0
1992-02-10,48.6833333,-117.1833333,COLUMBIA ABOVE METHOW,376,17A01S,Bunchgrass Mdw,5000,19.3,19.0,102.0,20.1,25.2,80.0
1992-02-10,47.2666667,-113.75,UPPER CLARK FORK RIVER BASIN,667,13B07S,North Fork Jocko,6330,28.9,28.8,100.0,32.7,35.5,92.0
1992-02-10,46.85,-112.5,UPPER CLARK FORK RIVER BASIN,903,12C22S,Nevada Ridge,7020,10.5,9.4,77.0,15.6,11.5,81.0
1992-02-10,48.3,-116.0666667,KOOTENAI RIVER IN MONTANA,323,16A08S,Bear Mountain,5400,36.2,38.6,94.0,38.9,49.5,79.0
1992-02-10,48.9833333,-115.8166667,KOOTENAI RIVER IN MONTANA,918,15A05S,Garver Creek,4250,6.4,6.9,93.0,15.6,12.9,81.0
1992-02-10,48.9166667,-114.76666670000002,KOOTENAI RIVER IN MONTANA,500,14A11S,Grave Creek,4300,11.9,11.4,104.0,18.0,22.8,79.0
1992-02-10,48.3,-114.8333333,KOOTENAI RIVER IN MONTANA,510,14A14S,Hand Creek,5035,7.7,7.8,99.0,9.6,11.7,82.0
1992-02-10,48.96666670000001,-115.95,KOOTENAI RIVER IN MONTANA,516,15A03S,Hawkins Lake,6450,15.3,16.8,91.0,15.6,20.9,75.0
1992-02-10,48.1333333,-115.6166667,KOOTENAI RIVER IN MONTANA,932,15A12S,Poorman Creek,5100,10.5,23.7,77.0,15.6,39.8,81.0
1992-02-10,48.9166667,-114.8666667,KOOTENAI RIVER IN MONTANA,787,14A12S,Stahl Peak,6030,21.8,23.2,94.0,21.8,26.6,82.0
1992-02-10,48.2,-114.51666670000002,FLATHEAD RIVER BASIN,1165,14A19S,Ashley Divide,4820,10.5,14.0,77.0,15.6,21.1,81.0
1992-02-10,48.1333333,-113.01666670000002,FLATHEAD RIVER BASIN,307,13A15S,Badger Pass,6900,19.7,20.3,97.0,22.0,23.2,95.0
1992-02-10,47.6833333,-114.0,FLATHEAD RIVER BASIN,346,13B25S,Bisson Creek,4920,4.9,6.8,72.0,15.6,11.5,81.0
1992-02-10,47.9833333,-114.35,FLATHEAD RIVER BASIN,1144,14B04S,Blacktail Mtn,5650,10.5,14.0,77.0,15.6,21.1,81.0
1992-02-10,48.4333333,-113.9333333,FLATHEAD RIVER BASIN,469,13A24S,Emery Creek,4350,11.3,10.4,109.0,15.1,17.1,88.0
1992-02-10,48.8,-113.85,FLATHEAD RIVER BASIN,482,13A19S,Flattop Mtn.,6300,27.7,29.7,93.0,27.4,33.8,81.0
1992-02-10,48.9166667,-114.76666670000002,FLATHEAD RIVER BASIN,500,14A11S,Grave Creek,4300,11.9,11.4,104.0,18.0,22.8,79.0
1992-02-10,48.3,-114.8333333,FLATHEAD RIVER BASIN,510,14A14S,Hand Creek,5035,7.7,7.8,99.0,9.6,11.7,82.0
1992-02-10,47.4333333,-113.78333329999998,FLATHEAD RIVER BASIN,562,13B22S,Kraft Creek,4750,9.6,14.0,77.0,17.9,18.7,96.0
1992-02-10,48.8,-113.6666667,FLATHEAD RIVER BASIN,613,13A27S,Many Glacier,4900,8.6,10.1,85.0,18.0,22.3,81.0
1992-02-10,46.8833333,-113.3166667,UPPER CLARK FORK RIVER BASIN,604,13C38S,Lubrecht Flume,4680,3.6,4.1,88.0,7.1,7.4,96.0
1992-02-10,47.0833333,-112.73333329999998,UPPER CLARK FORK RIVER BASIN,414,12B14S,Copper Camp,6950,19.7,14.0,77.0,22.7,23.0,99.0
1992-02-10,47.05,-112.6,UPPER CLARK FORK RIVER BASIN,413,12B16S,Copper Bottom,5200,7.8,14.0,77.0,11.5,11.7,98.0
1992-02-10,46.46666670000001,-113.4,UPPER CLARK FORK RIVER BASIN,410,13C33S,Combination,5600,3.5,3.4,103.0,6.7,6.5,103.0
1992-02-10,46.4166667,-113.4333333,UPPER CLARK FORK RIVER BASIN,349,13C13S,Black Pine,7210,8.2,6.7,122.0,8.4,9.1,92.0
1992-02-10,45.8,-112.51666670000002,UPPER CLARK FORK RIVER BASIN,315,12D09S,Basin Creek,7180,5.0,4.8,104.0,4.7,6.0,78.0
1992-02-10,46.8666667,-113.28333329999998,UPPER CLARK FORK RIVER BASIN,657,13C31S,N Fk Elk Creek,6250,8.1,7.3,111.0,7.7,9.6,80.0
1992-02-10,46.1,-113.1333333,UPPER CLARK FORK RIVER BASIN,313,13C44S,Barker Lakes,8250,7.8,8.6,91.0,8.9,10.5,85.0
1992-02-10,48.9166667,-114.8666667,FLATHEAD RIVER BASIN,787,14A12S,Stahl Peak,6030,21.8,23.2,94.0,21.8,26.6,82.0
1992-02-10,47.1833333,-114.3333333,FLATHEAD RIVER BASIN,783,14B05S,Sleeping Woman,6150,10.0,10.1,99.0,15.6,14.7,81.0
1992-02-10,48.3,-113.3333333,FLATHEAD RIVER BASIN,693,13A26S,Pike Creek,5930,17.9,14.0,77.0,18.3,21.2,86.0
1992-02-10,47.2666667,-113.75,FLATHEAD RIVER BASIN,667,13B07S,North Fork Jocko,6330,28.9,28.8,100.0,32.7,35.5,92.0
1992-02-10,48.15,-113.95,FLATHEAD RIVER BASIN,664,13A25S,Noisy Basin,6040,29.2,26.8,109.0,30.8,30.3,102.0
1992-02-10,47.6833333,-113.96666670000002,FLATHEAD RIVER BASIN,646,13B24S,Moss Peak,6780,24.5,23.6,104.0,23.3,25.4,92.0
1992-02-10,47.0,-113.9333333,FLATHEAD RIVER BASIN,901,13C01S,Stuart Mountain,7400,10.5,21.9,77.0,15.6,22.8,81.0
1992-02-10,48.71666670000001,-120.6666667,COLUMBIA ABOVE METHOW,515,20A05S,Harts Pass,6490,28.7,29.6,97.0,26.5,21.1,81.0
1992-02-10,48.5666667,-115.45,KOOTENAI RIVER IN MONTANA,311,15A08S,Banfield Mountain,5600,11.8,12.2,97.0,14.4,17.8,81.0
1992-02-10,48.65,-119.8333333,COLUMBIA ABOVE METHOW,728,19A02S,Salmon Meadows,4460,7.0,6.9,101.0,7.3,10.1,72.0
1992-02-10,44.5833333,-111.1166667,"HENRYS FORK, TETON, WILLOW, BLACKFOOT, PORTNEUF",609,11E31S,Madison Plateau,7750,14.2,15.1,94.0,14.9,18.4,81.0
1992-02-10,43.5166667,-110.9166667,"HENRYS FORK, TETON, WILLOW, BLACKFOOT, PORTNEUF",689,10F23S,Phillips Bench,8200,11.2,16.9,66.0,12.5,19.5,64.0
1992-02-10,43.5666667,-111.21666670000002,"HENRYS FORK, TETON, WILLOW, BLACKFOOT, PORTNEUF",695,11F02S,Pine Creek Pass,6720,6.8,10.2,67.0,10.7,15.3,70.0
1992-02-10,42.5166667,-111.95,"HENRYS FORK, TETON, WILLOW, BLACKFOOT, PORTNEUF",741,11G30S,Sedgwick Peak,7850,6.7,13.6,49.0,8.6,14.5,59.0
1992-02-10,43.21666670000001,-111.6833333,"HENRYS FORK, TETON, WILLOW, BLACKFOOT, PORTNEUF",749,11F11S,Sheep Mtn.,6650,4.4,9.8,45.0,6.2,11.6,53.0
1992-02-10,42.5666667,-111.3,"HENRYS FORK, TETON, WILLOW, BLACKFOOT, PORTNEUF",761,11G05S,Slug Creek Divide,7225,5.7,9.6,59.0,10.6,14.4,74.0
1992-02-10,42.95,-111.3666667,"HENRYS FORK, TETON, WILLOW, BLACKFOOT, PORTNEUF",770,11G01S,Somsen Ranch,6800,4.4,9.4,47.0,6.9,11.8,58.0
1992-02-10,44.6166667,-111.15,"HENRYS FORK, TETON, WILLOW, BLACKFOOT, PORTNEUF",858,11E30S,Whiskey Creek,6800,9.0,10.0,90.0,12.7,14.1,90.0
1992-02-10,44.5333333,-111.4166667,"HENRYS FORK, TETON, WILLOW, BLACKFOOT, PORTNEUF",860,11E36S,White Elephant,7710,14.0,17.4,80.0,16.3,20.3,80.0
1992-02-10,42.75,-112.48333329999998,"HENRYS FORK, TETON, WILLOW, BLACKFOOT, PORTNEUF",867,12G17S,Wildhorse Divide,6490,5.5,9.8,56.0,8.4,13.4,63.0
1992-02-10,43.2666667,-115.35,BIG AND LITTLE WOOD BASINS,382,15F09S,Camas Creek Divide,5710,10.5,9.7,77.0,15.6,12.9,81.0
1992-02-10,43.7666667,-114.4166667,BIG AND LITTLE WOOD BASINS,895,14F19S,Chocolate Gulch,6310,10.5,9.0,77.0,15.6,11.7,81.0
1992-02-10,43.6,-114.6666667,BIG AND LITTLE WOOD BASINS,450,14F08S,Dollarhide Summit,8420,11.0,14.0,77.0,12.2,18.1,67.0
1992-02-10,43.8833333,-114.6666667,BIG AND LITTLE WOOD BASINS,489,14F17S,Galena,7470,7.8,11.7,67.0,9.6,13.3,72.0
1992-02-10,43.8666667,-114.71666670000002,BIG AND LITTLE WOOD BASINS,490,14F12S,Galena Summit,8780,9.2,12.6,73.0,10.4,14.0,74.0
1992-02-10,43.6166667,-113.9333333,BIG AND LITTLE WOOD BASINS,492,13F04S,Garfield R.S.,6560,4.1,7.1,58.0,7.0,9.0,78.0
1992-02-10,43.71666670000001,-114.1666667,BIG AND LITTLE WOOD BASINS,537,14F16S,Hyndman,7620,5.9,8.3,71.0,7.8,11.1,70.0
1992-02-10,42.1833333,-114.28333329999998,"RAFT, GOOSE, SALMON FALLS, BRUNEAU",610,14G02S,Magic Mountain,6880,8.6,13.5,64.0,11.5,15.6,74.0
1992-02-10,42.3166667,-113.6166667,"RAFT, GOOSE, SALMON FALLS, BRUNEAU",534,13G01S,Howell Canyon,7980,10.8,15.4,70.0,12.5,18.5,68.0
1992-02-10,42.1666667,-114.2,"RAFT, GOOSE, SALMON FALLS, BRUNEAU",359,14G01S,Bostetter R.S.,7500,7.0,10.8,65.0,8.1,12.2,66.0
1992-02-10,41.7666667,-115.7,"RAFT, GOOSE, SALMON FALLS, BRUNEAU",336,15H04S,Big Bend,6898,2.8,6.8,41.0,4.5,7.6,59.0
1992-02-10,41.8333333,-115.45,"RAFT, GOOSE, SALMON FALLS, BRUNEAU",321,15H01S,Bear Creek,8040,9.0,13.1,69.0,12.3,15.0,82.0
1992-02-10,43.8666667,-114.21666670000002,BIG AND LITTLE LOST BASINS,792,14F02S,Stickney Mill,7430,4.0,5.4,74.0,5.0,7.2,69.0
1992-02-10,44.21666670000001,-110.6666667,"HENRYS FORK, TETON, WILLOW, BLACKFOOT, PORTNEUF",577,10E09S,Lewis Lake Divide,7850,16.0,21.8,73.0,17.6,24.8,71.0
1992-02-10,44.4166667,-113.4,BIG AND LITTLE LOST BASINS,636,13E06S,Moonshine,7440,6.1,6.4,95.0,8.0,8.8,91.0
1992-02-10,43.8166667,-114.26666670000002,BIG AND LITTLE LOST BASINS,601,14F03S,Lost-Wood Divide,7900,9.1,13.4,68.0,9.8,14.7,67.0
1992-02-10,44.0166667,-113.46666670000002,BIG AND LITTLE LOST BASINS,524,13E27S,Hilts Creek,8000,7.8,8.4,93.0,8.3,9.0,92.0
1992-02-10,43.75,-113.9333333,BIG AND LITTLE LOST BASINS,320,13F03S,Bear Canyon,7900,7.1,9.2,77.0,7.2,11.2,64.0
1992-02-10,43.8,-114.85,BIG AND LITTLE WOOD BASINS,845,14F04S,Vienna Mine,8960,13.5,20.7,65.0,14.4,21.2,68.0
1992-02-10,43.6333333,-113.96666670000002,BIG AND LITTLE WOOD BASINS,805,13F09S,Swede Peak,7640,8.0,10.1,79.0,8.5,11.7,73.0
1992-02-10,43.8166667,-114.26666670000002,BIG AND LITTLE WOOD BASINS,601,14F03S,Lost-Wood Divide,7900,9.1,13.4,68.0,9.8,14.7,67.0
1992-02-10,44.4333333,-113.3166667,BIG AND LITTLE LOST BASINS,620,13E18S,Meadow Lake,9150,7.9,10.0,79.0,10.2,11.6,88.0
1992-02-10,44.4166667,-111.3833333,"HENRYS FORK, TETON, WILLOW, BLACKFOOT, PORTNEUF",546,11E10S,Island Park,6290,7.2,10.5,69.0,9.6,13.2,73.0
1992-02-10,41.7333333,-115.46666670000002,"RAFT, GOOSE, SALMON FALLS, BRUNEAU",746,15H03S,Seventysix Creek,7350,2.3,8.0,29.0,5.6,10.2,55.0
1992-02-10,44.4333333,-112.0,"HENRYS FORK, TETON, WILLOW, BLACKFOOT, PORTNEUF",424,11E37S,Crab Creek,6900,6.2,8.5,73.0,8.1,11.1,73.0
1992-02-10,46.9,-121.48333329999998,"YAKIMA, AHTANUM",642,21C17S,Morse Lake,5410,38.8,38.5,101.0,40.8,48.9,83.0
1992-02-10,46.35,-121.0833333,"YAKIMA, AHTANUM",599,21C39S,Lost Horse,5120,8.8,14.7,60.0,13.8,20.6,67.0
1992-02-10,47.2833333,-120.48333329999998,"YAKIMA, AHTANUM",507,20B11S,Grouse Camp,5390,14.2,14.0,77.0,12.7,19.1,66.0
1992-02-10,46.55,-121.1666667,"YAKIMA, AHTANUM",502,21C10S,Green Lake,5920,11.5,16.0,72.0,15.2,21.5,71.0
1992-02-10,47.5333333,-121.0833333,"YAKIMA, AHTANUM",478,21B04S,Fish Lake,3430,18.2,23.3,78.0,39.6,41.0,97.0
1992-02-10,46.8166667,-121.3333333,"YAKIMA, AHTANUM",375,21C38S,Bumping Ridge,4610,14.5,18.7,78.0,32.9,37.6,88.0
1992-02-10,47.3833333,-121.0666667,"YAKIMA, AHTANUM",734,21B51S,Sasse Ridge,4340,21.7,24.1,90.0,32.6,37.4,87.0
1992-02-10,47.2833333,-120.3666667,"CHELAN, ENTIAT, WENATCHEE",841,20B07S,Upper Wheeler,4330,7.4,9.7,76.0,10.4,15.2,68.0
1992-02-10,47.75,-121.1,"CHELAN, ENTIAT, WENATCHEE",791,21B01S,Stevens Pass,3950,29.0,29.6,98.0,56.0,55.1,102.0
1992-02-10,47.9833333,-120.5666667,"CHELAN, ENTIAT, WENATCHEE",699,20B24S,Pope Ridge,3590,14.4,14.5,99.0,18.9,22.3,85.0
1992-02-10,48.45,-120.9166667,"CHELAN, ENTIAT, WENATCHEE",681,20A12S,Park Creek Ridge,4600,42.2,33.0,128.0,43.4,43.4,100.0
1992-02-10,42.0166667,-115.0,"CHELAN, ENTIAT, WENATCHEE",871,15G02S,Wilson Creek,7120,6.9,9.9,70.0,10.2,11.6,88.0
1992-02-10,48.2,-120.9166667,"CHELAN, ENTIAT, WENATCHEE",606,20A23S,Lyman Lake,5980,49.1,43.0,114.0,34.9,46.7,75.0
1992-02-10,44.1333333,-110.8333333,"HENRYS FORK, TETON, WILLOW, BLACKFOOT, PORTNEUF",499,10E15S,Grassy Lake,7265,15.8,22.2,71.0,18.5,25.6,72.0
1992-02-10,47.2333333,-120.3,"CHELAN, ENTIAT, WENATCHEE",832,20B25S,Trough,5480,5.5,8.1,68.0,9.3,15.2,61.0
1992-02-10,46.6333333,-121.3833333,"YAKIMA, AHTANUM",863,21C28S,White Pass E.S.,4440,12.1,16.9,72.0,22.1,27.2,81.0
1992-02-10,47.35,-120.6833333,"CHELAN, ENTIAT, WENATCHEE",352,20B02S,Blewett Pass,4240,8.5,12.9,66.0,16.8,22.1,76.0
1992-02-10,42.96666670000001,-110.6166667,SNAKE ABOVE PALISADES,353,10G02S,Blind Bull Sum,8650,9.4,15.1,62.0,8.3,13.7,61.0
1992-02-10,44.5,-111.1333333,"HENRYS FORK, TETON, WILLOW, BLACKFOOT, PORTNEUF",347,11E35S,Black Bear,8170,21.6,25.6,84.0,21.2,26.5,80.0
1992-02-10,42.8166667,-110.8333333,SNAKE ABOVE PALISADES,868,10G23S,Willow Creek,8080,12.9,18.2,71.0,15.4,23.0,67.0
1992-02-10,44.15,-110.21666670000002,SNAKE ABOVE PALISADES,837,10E17S,Two Ocean Plateau,9240,12.0,18.9,63.0,12.2,18.5,66.0
1992-02-10,43.75,-110.05,SNAKE ABOVE PALISADES,822,10F09S,Togwotee Pass,9580,11.4,15.7,73.0,11.9,16.9,70.0
1992-02-10,43.9333333,-110.45,SNAKE ABOVE PALISADES,314,10F02S,Base Camp,7060,7.8,11.5,68.0,10.1,14.9,68.0
1992-02-10,42.5,-110.9166667,SNAKE ABOVE PALISADES,730,10G08S,Salt River Summit,7640,6.2,8.5,73.0,8.9,11.4,78.0
1992-02-10,43.5166667,-110.9166667,SNAKE ABOVE PALISADES,689,10F23S,Phillips Bench,8200,11.2,16.9,66.0,12.5,19.5,64.0
1992-02-10,42.5333333,-110.6666667,SNAKE ABOVE PALISADES,779,10G20S,Spring Creek Divide,9000,11.7,15.7,75.0,12.7,16.5,77.0
1992-02-10,44.21666670000001,-110.6666667,SNAKE ABOVE PALISADES,577,10E09S,Lewis Lake Divide,7850,16.0,21.8,73.0,17.6,24.8,71.0
1992-02-10,43.3833333,-110.1333333,SNAKE ABOVE PALISADES,506,10F19S,Gros Ventre Summit,8750,7.2,8.7,83.0,5.8,8.7,67.0
1992-02-10,44.1333333,-110.8333333,SNAKE ABOVE PALISADES,499,10E15S,Grassy Lake,7265,15.8,22.2,71.0,18.5,25.6,72.0
1992-02-10,43.35,-110.4333333,SNAKE ABOVE PALISADES,497,10F29S,Granite Creek,6770,7.0,11.6,60.0,8.6,14.5,59.0
1992-02-10,43.1333333,-110.2,SNAKE ABOVE PALISADES,460,10F17S,East Rim Divide,7930,6.1,7.0,87.0,6.1,8.2,74.0
1992-02-10,42.65,-110.8166667,SNAKE ABOVE PALISADES,419,10G25S,Cottonwood Creek,7670,9.6,13.8,70.0,12.7,16.9,75.0
1992-02-10,43.1666667,-110.1333333,SNAKE ABOVE PALISADES,597,10F16S,Loomis Park,8240,7.0,10.2,69.0,8.1,12.0,68.0
1993-02-10,46.8333333,-116.1166667,CLEARWATER AND SALMON,466,16C20S,Elk Butte,5690,26.2,25.6,102.0,28.5,32.9,87.0
1993-02-10,44.55,-115.5666667,CLEARWATER AND SALMON,439,15E04S,Deadwood Summit,6860,28.0,26.2,107.0,30.8,31.0,99.0
1993-02-10,45.1666667,-113.5833333,CLEARWATER AND SALMON,436,13D19S,Darkhorse Lake,8945,14.7,18.6,79.0,15.0,19.1,79.0
